{
"type": "FeatureCollection",
"name": "Facilities",
"crs": { "type": "name", "properties": { "name": "urn:ogc:def:crs:OGC:1.3:CRS84" } },
"features": [
{ "type": "Feature", "properties": { "Number": "110", "Name": "Bethesda Regional Health Centre", "Type": "Dialysis", "Subtype": "Hospital", "Emerg_Dept": "NA", "Latitude": 49.52981088, "Longitude": -96.68031983 }, "geometry": { "type": "Point", "coordinates": [ -96.68031983, 49.52981088 ] } },
{ "type": "Feature", "properties": { "Number": "114", "Name": "Boundary Trails Health Centre", "Type": "Dialysis", "Subtype": "Hospital", "Emerg_Dept": "NA", "Latitude": 49.18900184, "Longitude": -98.00321256 }, "geometry": { "type": "Point", "coordinates": [ -98.00321256, 49.18900184 ] } },
{ "type": "Feature", "properties": { "Number": "122", "Name": "Dauphin Regional Health Centre", "Type": "Dialysis", "Subtype": "Hospital", "Emerg_Dept": "NA", "Latitude": 51.14724871, "Longitude": -100.062001 }, "geometry": { "type": "Point", "coordinates": [ -100.062001, 51.14724871 ] } },
{ "type": "Feature", "properties": { "Number": "134", "Name": "Flin Flon General Hospital", "Type": "Dialysis", "Subtype": "Hospital", "Emerg_Dept": "NA", "Latitude": 54.7654645, "Longitude": -101.8775382 }, "geometry": { "type": "Point", "coordinates": [ -101.8775382, 54.7654645 ] } },
{ "type": "Feature", "properties": { "Number": "146", "Name": "Johnson Memorial Hospital", "Type": "Dialysis", "Subtype": "Hospital", "Emerg_Dept": "NA", "Latitude": 50.62790646, "Longitude": -96.99399843 }, "geometry": { "type": "Point", "coordinates": [ -96.99399843, 50.62790646 ] } },
{ "type": "Feature", "properties": { "Number": "178", "Name": "Lakeshore General Hospital", "Type": "Dialysis", "Subtype": "Hospital", "Emerg_Dept": "NA", "Latitude": 51.1803259, "Longitude": -98.35242953 }, "geometry": { "type": "Point", "coordinates": [ -98.35242953, 51.1803259 ] } },
{ "type": "Feature", "properties": { "Number": "212", "Name": "Norway House Hospital", "Type": "Dialysis", "Subtype": "Hospital", "Emerg_Dept": "NA", "Latitude": 53.97688628, "Longitude": -97.80120882 }, "geometry": { "type": "Point", "coordinates": [ -97.80120882, 53.97688628 ] } },
{ "type": "Feature", "properties": { "Number": "161", "Name": "Pine Falls Hospital", "Type": "Dialysis", "Subtype": "Hospital", "Emerg_Dept": "NA", "Latitude": 50.56337246, "Longitude": -96.21486018 }, "geometry": { "type": "Point", "coordinates": [ -96.21486018, 50.56337246 ] } },
{ "type": "Feature", "properties": { "Number": "162", "Name": "Portage District General Hospital", "Type": "Dialysis", "Subtype": "Hospital", "Emerg_Dept": "NA", "Latitude": 49.96731277, "Longitude": -98.28172633 }, "geometry": { "type": "Point", "coordinates": [ -98.28172633, 49.96731277 ] } },
{ "type": "Feature", "properties": { "Number": "169", "Name": "Russell Health Centre", "Type": "Dialysis", "Subtype": "Hospital", "Emerg_Dept": "NA", "Latitude": 50.77315999, "Longitude": -101.2772138 }, "geometry": { "type": "Point", "coordinates": [ -101.2772138, 50.77315999 ] } },
{ "type": "Feature", "properties": { "Number": "173", "Name": "Selkirk Regional Health Centre", "Type": "Dialysis", "Subtype": "Hospital", "Emerg_Dept": "NA", "Latitude": 50.15748272, "Longitude": -96.88770307 }, "geometry": { "type": "Point", "coordinates": [ -96.88770307, 50.15748272 ] } },
{ "type": "Feature", "properties": { "Number": "170", "Name": "St. Anthony's Hospital", "Type": "Dialysis", "Subtype": "Hospital", "Emerg_Dept": "NA", "Latitude": 53.82740091, "Longitude": -101.2509283 }, "geometry": { "type": "Point", "coordinates": [ -101.2509283, 53.82740091 ] } },
{ "type": "Feature", "properties": { "Number": "177", "Name": "Swan Valley Health Centre", "Type": "Dialysis", "Subtype": "Hospital", "Emerg_Dept": "NA", "Latitude": 52.10566189, "Longitude": -101.2612767 }, "geometry": { "type": "Point", "coordinates": [ -101.2612767, 52.10566189 ] } },
{ "type": "Feature", "properties": { "Number": "187", "Name": "Thompson General Hospital", "Type": "Dialysis", "Subtype": "Hospital", "Emerg_Dept": "NA", "Latitude": 55.73510575, "Longitude": -97.85752203 }, "geometry": { "type": "Point", "coordinates": [ -97.85752203, 55.73510575 ] } },
{ "type": "Feature", "properties": { "Number": "48", "Name": "Berens River Renal Health Centre", "Type": "Dialysis", "Subtype": "Other", "Emerg_Dept": "NA", "Latitude": 52.36567688, "Longitude": -97.03260822 }, "geometry": { "type": "Point", "coordinates": [ -97.03260822, 52.36567688 ] } },
{ "type": "Feature", "properties": { "Number": "15", "Name": "Hodgson Area Renal Health Centre", "Type": "Dialysis", "Subtype": "Other", "Emerg_Dept": "NA", "Latitude": 51.21556321, "Longitude": -97.5744704 }, "geometry": { "type": "Point", "coordinates": [ -97.5744704, 51.21556321 ] } },
{ "type": "Feature", "properties": { "Number": "CE14", "Name": "Altona", "Type": "ERS", "Subtype": "NA", "Emerg_Dept": "NA", "Latitude": 49.1064389, "Longitude": -97.5517336 }, "geometry": { "type": "Point", "coordinates": [ -97.5517336, 49.1064389 ] } },
{ "type": "Feature", "properties": { "Number": "IL06", "Name": "Arborg", "Type": "ERS", "Subtype": "NA", "Emerg_Dept": "NA", "Latitude": 50.9043357, "Longitude": -97.2259354 }, "geometry": { "type": "Point", "coordinates": [ -97.2259354, 50.9043357 ] } },
{ "type": "Feature", "properties": { "Number": "IL04", "Name": "Ashern", "Type": "ERS", "Subtype": "NA", "Emerg_Dept": "NA", "Latitude": 51.1808071, "Longitude": -98.3531123 }, "geometry": { "type": "Point", "coordinates": [ -98.3531123, 51.1808071 ] } },
{ "type": "Feature", "properties": { "Number": "NE01", "Name": "Beausejour", "Type": "ERS", "Subtype": "NA", "Emerg_Dept": "NA", "Latitude": 50.0580429, "Longitude": -96.5228559 }, "geometry": { "type": "Point", "coordinates": [ -96.5228559, 50.0580429 ] } },
{ "type": "Feature", "properties": { "Number": "AS02", "Name": "Birtle", "Type": "ERS", "Subtype": "NA", "Emerg_Dept": "NA", "Latitude": 50.42639787, "Longitude": -101.0457881 }, "geometry": { "type": "Point", "coordinates": [ -101.0457881, 50.42639787 ] } },
{ "type": "Feature", "properties": { "Number": "NE07", "Name": "Bissett", "Type": "ERS", "Subtype": "NA", "Emerg_Dept": "NA", "Latitude": 51.0220634, "Longitude": -95.6678252 }, "geometry": { "type": "Point", "coordinates": [ -95.6678252, 51.0220634 ] } },
{ "type": "Feature", "properties": { "Number": "AS17", "Name": "Boissevain", "Type": "ERS", "Subtype": "NA", "Emerg_Dept": "NA", "Latitude": 49.2259498, "Longitude": -100.0594424 }, "geometry": { "type": "Point", "coordinates": [ -100.0594424, 49.2259498 ] } },
{ "type": "Feature", "properties": { "Number": "CE01", "Name": "Boundary Trails", "Type": "ERS", "Subtype": "NA", "Emerg_Dept": "NA", "Latitude": 49.1909969, "Longitude": -98.0038164 }, "geometry": { "type": "Point", "coordinates": [ -98.0038164, 49.1909969 ] } },
{ "type": "Feature", "properties": { "Number": "BR01", "Name": "Brandon 1", "Type": "ERS", "Subtype": "NA", "Emerg_Dept": "NA", "Latitude": 49.852446, "Longitude": -99.9660213 }, "geometry": { "type": "Point", "coordinates": [ -99.9660213, 49.852446 ] } },
{ "type": "Feature", "properties": { "Number": "BR02", "Name": "Brandon 2", "Type": "ERS", "Subtype": "NA", "Emerg_Dept": "NA", "Latitude": 49.8298095, "Longitude": -99.9549836 }, "geometry": { "type": "Point", "coordinates": [ -99.9549836, 49.8298095 ] } },
{ "type": "Feature", "properties": { "Number": "AS10", "Name": "Carberry", "Type": "ERS", "Subtype": "NA", "Emerg_Dept": "NA", "Latitude": 49.871946, "Longitude": -99.3587864 }, "geometry": { "type": "Point", "coordinates": [ -99.3587864, 49.871946 ] } },
{ "type": "Feature", "properties": { "Number": "CE15", "Name": "Carman", "Type": "ERS", "Subtype": "NA", "Emerg_Dept": "NA", "Latitude": 49.497141, "Longitude": -98.0111128 }, "geometry": { "type": "Point", "coordinates": [ -98.0111128, 49.497141 ] } },
{ "type": "Feature", "properties": { "Number": "AS14", "Name": "Cartwright", "Type": "ERS", "Subtype": "NA", "Emerg_Dept": "NA", "Latitude": 49.0917771, "Longitude": -99.3351765 }, "geometry": { "type": "Point", "coordinates": [ -99.3351765, 49.0917771 ] } },
{ "type": "Feature", "properties": { "Number": "CH01", "Name": "Churchill", "Type": "ERS", "Subtype": "NA", "Emerg_Dept": "NA", "Latitude": 58.7716073, "Longitude": -94.1728304 }, "geometry": { "type": "Point", "coordinates": [ -94.1728304, 58.7716073 ] } },
{ "type": "Feature", "properties": { "Number": "BU02", "Name": "Cross Lake", "Type": "ERS", "Subtype": "NA", "Emerg_Dept": "NA", "Latitude": 54.62600021, "Longitude": -97.77906165 }, "geometry": { "type": "Point", "coordinates": [ -97.77906165, 54.62600021 ] } },
{ "type": "Feature", "properties": { "Number": "CE03", "Name": "Crystal City", "Type": "ERS", "Subtype": "NA", "Emerg_Dept": "NA", "Latitude": 49.1504424, "Longitude": -98.9502487 }, "geometry": { "type": "Point", "coordinates": [ -98.9502487, 49.1504424 ] } },
{ "type": "Feature", "properties": { "Number": "PK01", "Name": "Dauphin", "Type": "ERS", "Subtype": "NA", "Emerg_Dept": "NA", "Latitude": 51.1487052, "Longitude": -100.0621675 }, "geometry": { "type": "Point", "coordinates": [ -100.0621675, 51.1487052 ] } },
{ "type": "Feature", "properties": { "Number": "AS19", "Name": "Deloraine", "Type": "ERS", "Subtype": "NA", "Emerg_Dept": "NA", "Latitude": 49.1918159, "Longitude": -100.498361 }, "geometry": { "type": "Point", "coordinates": [ -100.498361, 49.1918159 ] } },
{ "type": "Feature", "properties": { "Number": "NO03", "Name": "Easterville", "Type": "ERS", "Subtype": "NA", "Emerg_Dept": "NA", "Latitude": 53.1075032, "Longitude": -99.8153529 }, "geometry": { "type": "Point", "coordinates": [ -99.8153529, 53.1075032 ] } },
{ "type": "Feature", "properties": { "Number": "CE10", "Name": "Elie", "Type": "ERS", "Subtype": "NA", "Emerg_Dept": "NA", "Latitude": 49.9021929, "Longitude": -97.7571893 }, "geometry": { "type": "Point", "coordinates": [ -97.7571893, 49.9021929 ] } },
{ "type": "Feature", "properties": { "Number": "AS08", "Name": "Erickson", "Type": "ERS", "Subtype": "NA", "Emerg_Dept": "NA", "Latitude": 50.4965772, "Longitude": -99.9110132 }, "geometry": { "type": "Point", "coordinates": [ -99.9110132, 50.4965772 ] } },
{ "type": "Feature", "properties": { "Number": "SE05", "Name": "Falcon Lake", "Type": "ERS", "Subtype": "NA", "Emerg_Dept": "NA", "Latitude": 49.6790266, "Longitude": -95.332991 }, "geometry": { "type": "Point", "coordinates": [ -95.332991, 49.6790266 ] } },
{ "type": "Feature", "properties": { "Number": "IL10", "Name": "Fisher", "Type": "ERS", "Subtype": "NA", "Emerg_Dept": "NA", "Latitude": 51.3115304, "Longitude": -97.5653314 }, "geometry": { "type": "Point", "coordinates": [ -97.5653314, 51.3115304 ] } },
{ "type": "Feature", "properties": { "Number": "NO06", "Name": "Flin Flon", "Type": "ERS", "Subtype": "NA", "Emerg_Dept": "NA", "Latitude": 54.7641202, "Longitude": -101.8801268 }, "geometry": { "type": "Point", "coordinates": [ -101.8801268, 54.7641202 ] } },
{ "type": "Feature", "properties": { "Number": "PK09", "Name": "Gilbert Plains", "Type": "ERS", "Subtype": "NA", "Emerg_Dept": "NA", "Latitude": 51.1498108, "Longitude": -100.4885786 }, "geometry": { "type": "Point", "coordinates": [ -100.4885786, 51.1498108 ] } },
{ "type": "Feature", "properties": { "Number": "BU03", "Name": "Gillam", "Type": "ERS", "Subtype": "NA", "Emerg_Dept": "NA", "Latitude": 56.3462338, "Longitude": -94.7093534 }, "geometry": { "type": "Point", "coordinates": [ -94.7093534, 56.3462338 ] } },
{ "type": "Feature", "properties": { "Number": "IL07", "Name": "Gimli", "Type": "ERS", "Subtype": "NA", "Emerg_Dept": "NA", "Latitude": 50.6273165, "Longitude": -96.9941865 }, "geometry": { "type": "Point", "coordinates": [ -96.9941865, 50.6273165 ] } },
{ "type": "Feature", "properties": { "Number": "CE07", "Name": "Gladstone", "Type": "ERS", "Subtype": "NA", "Emerg_Dept": "NA", "Latitude": 50.2250449, "Longitude": -98.9458625 }, "geometry": { "type": "Point", "coordinates": [ -98.9458625, 50.2250449 ] } },
{ "type": "Feature", "properties": { "Number": "AS12", "Name": "Glenboro", "Type": "ERS", "Subtype": "NA", "Emerg_Dept": "NA", "Latitude": 49.5540443, "Longitude": -99.2897614 }, "geometry": { "type": "Point", "coordinates": [ -99.2897614, 49.5540443 ] } },
{ "type": "Feature", "properties": { "Number": "NO02", "Name": "Grand Rapids", "Type": "ERS", "Subtype": "NA", "Emerg_Dept": "NA", "Latitude": 53.1819057, "Longitude": -99.2683391 }, "geometry": { "type": "Point", "coordinates": [ -99.2683391, 53.1819057 ] } },
{ "type": "Feature", "properties": { "Number": "PK03", "Name": "Grandview", "Type": "ERS", "Subtype": "NA", "Emerg_Dept": "NA", "Latitude": 51.1798497, "Longitude": -100.6975661 }, "geometry": { "type": "Point", "coordinates": [ -100.6975661, 51.1798497 ] } },
{ "type": "Feature", "properties": { "Number": "IL05", "Name": "Gypsumville", "Type": "ERS", "Subtype": "NA", "Emerg_Dept": "NA", "Latitude": 51.7695012, "Longitude": -98.6382192 }, "geometry": { "type": "Point", "coordinates": [ -98.6382192, 51.7695012 ] } },
{ "type": "Feature", "properties": { "Number": "AS04", "Name": "Hamiota", "Type": "ERS", "Subtype": "NA", "Emerg_Dept": "NA", "Latitude": 50.182052, "Longitude": -100.5896294 }, "geometry": { "type": "Point", "coordinates": [ -100.5896294, 50.182052 ] } },
{ "type": "Feature", "properties": { "Number": "SE09", "Name": "Ile des Chenes", "Type": "ERS", "Subtype": "NA", "Emerg_Dept": "NA", "Latitude": 49.7160147, "Longitude": -96.993483 }, "geometry": { "type": "Point", "coordinates": [ -96.993483, 49.7160147 ] } },
{ "type": "Feature", "properties": { "Number": "AS15", "Name": "Killarney", "Type": "ERS", "Subtype": "NA", "Emerg_Dept": "NA", "Latitude": 49.1757405, "Longitude": -99.6648873 }, "geometry": { "type": "Point", "coordinates": [ -99.6648873, 49.1757405 ] } },
{ "type": "Feature", "properties": { "Number": "NE02", "Name": "Lac du Bonnet", "Type": "ERS", "Subtype": "NA", "Emerg_Dept": "NA", "Latitude": 50.2541165, "Longitude": -96.0626323 }, "geometry": { "type": "Point", "coordinates": [ -96.0626323, 50.2541165 ] } },
{ "type": "Feature", "properties": { "Number": "BU04", "Name": "Leaf Rapids", "Type": "ERS", "Subtype": "NA", "Emerg_Dept": "NA", "Latitude": 56.4710453, "Longitude": -100.0019825 }, "geometry": { "type": "Point", "coordinates": [ -100.0019825, 56.4710453 ] } },
{ "type": "Feature", "properties": { "Number": "IL03", "Name": "Lundar", "Type": "ERS", "Subtype": "NA", "Emerg_Dept": "NA", "Latitude": 50.694704, "Longitude": -98.0407681 }, "geometry": { "type": "Point", "coordinates": [ -98.0407681, 50.694704 ] } },
{ "type": "Feature", "properties": { "Number": "BU05", "Name": "Lynn Lake", "Type": "ERS", "Subtype": "NA", "Emerg_Dept": "NA", "Latitude": 56.8538508, "Longitude": -101.0523536 }, "geometry": { "type": "Point", "coordinates": [ -101.0523536, 56.8538508 ] } },
{ "type": "Feature", "properties": { "Number": "CE06", "Name": "MacGregor", "Type": "ERS", "Subtype": "NA", "Emerg_Dept": "NA", "Latitude": 49.9642702, "Longitude": -98.778236 }, "geometry": { "type": "Point", "coordinates": [ -98.778236, 49.9642702 ] } },
{ "type": "Feature", "properties": { "Number": "PK11", "Name": "Mafeking", "Type": "ERS", "Subtype": "NA", "Emerg_Dept": "NA", "Latitude": 52.6830524, "Longitude": -101.1100262 }, "geometry": { "type": "Point", "coordinates": [ -101.1100262, 52.6830524 ] } },
{ "type": "Feature", "properties": { "Number": "CE02", "Name": "Manitou", "Type": "ERS", "Subtype": "NA", "Emerg_Dept": "NA", "Latitude": 49.241729, "Longitude": -98.5466736 }, "geometry": { "type": "Point", "coordinates": [ -98.5466736, 49.241729 ] } },
{ "type": "Feature", "properties": { "Number": "AS23", "Name": "Melita", "Type": "ERS", "Subtype": "NA", "Emerg_Dept": "NA", "Latitude": 49.2706851, "Longitude": -100.9993488 }, "geometry": { "type": "Point", "coordinates": [ -100.9993488, 49.2706851 ] } },
{ "type": "Feature", "properties": { "Number": "AS07", "Name": "Minnedosa", "Type": "ERS", "Subtype": "NA", "Emerg_Dept": "NA", "Latitude": 50.2420338, "Longitude": -99.8391066 }, "geometry": { "type": "Point", "coordinates": [ -99.8391066, 50.2420338 ] } },
{ "type": "Feature", "properties": { "Number": "CE12", "Name": "Morris", "Type": "ERS", "Subtype": "NA", "Emerg_Dept": "NA", "Latitude": 49.3524558, "Longitude": -97.3663773 }, "geometry": { "type": "Point", "coordinates": [ -97.3663773, 49.3524558 ] } },
{ "type": "Feature", "properties": { "Number": "AS09", "Name": "Neepawa", "Type": "ERS", "Subtype": "NA", "Emerg_Dept": "NA", "Latitude": 50.2229307, "Longitude": -99.4922764 }, "geometry": { "type": "Point", "coordinates": [ -99.4922764, 50.2229307 ] } },
{ "type": "Feature", "properties": { "Number": "BU09", "Name": "Nelson House", "Type": "ERS", "Subtype": "NA", "Emerg_Dept": "NA", "Latitude": 55.78460172, "Longitude": -98.88360396 }, "geometry": { "type": "Point", "coordinates": [ -98.88360396, 55.78460172 ] } },
{ "type": "Feature", "properties": { "Number": "BU06", "Name": "Norway House", "Type": "ERS", "Subtype": "NA", "Emerg_Dept": "NA", "Latitude": 53.98343507, "Longitude": -97.8003079 }, "geometry": { "type": "Point", "coordinates": [ -97.8003079, 53.98343507 ] } },
{ "type": "Feature", "properties": { "Number": "CE05", "Name": "Notre Dame", "Type": "ERS", "Subtype": "NA", "Emerg_Dept": "NA", "Latitude": 49.5316109, "Longitude": -98.5619748 }, "geometry": { "type": "Point", "coordinates": [ -98.5619748, 49.5316109 ] } },
{ "type": "Feature", "properties": { "Number": "NE05", "Name": "Oak Bank", "Type": "ERS", "Subtype": "NA", "Emerg_Dept": "NA", "Latitude": 49.9235346, "Longitude": -96.8440435 }, "geometry": { "type": "Point", "coordinates": [ -96.8440435, 49.9235346 ] } },
{ "type": "Feature", "properties": { "Number": "CE11", "Name": "Oak Bluff", "Type": "ERS", "Subtype": "NA", "Emerg_Dept": "NA", "Latitude": 49.7728359, "Longitude": -97.3253485 }, "geometry": { "type": "Point", "coordinates": [ -97.3253485, 49.7728359 ] } },
{ "type": "Feature", "properties": { "Number": "NE03", "Name": "Pinawa", "Type": "ERS", "Subtype": "NA", "Emerg_Dept": "NA", "Latitude": 50.1503426, "Longitude": -95.8824678 }, "geometry": { "type": "Point", "coordinates": [ -95.8824678, 50.1503426 ] } },
{ "type": "Feature", "properties": { "Number": "NE08", "Name": "Pine Falls", "Type": "ERS", "Subtype": "NA", "Emerg_Dept": "NA", "Latitude": 50.5633512, "Longitude": -96.2175011 }, "geometry": { "type": "Point", "coordinates": [ -96.2175011, 50.5633512 ] } },
{ "type": "Feature", "properties": { "Number": "CE09", "Name": "Portage", "Type": "ERS", "Subtype": "NA", "Emerg_Dept": "NA", "Latitude": 49.9148999, "Longitude": -98.2720825 }, "geometry": { "type": "Point", "coordinates": [ -98.2720825, 49.9148999 ] } },
{ "type": "Feature", "properties": { "Number": "AS06", "Name": "Rivers", "Type": "ERS", "Subtype": "NA", "Emerg_Dept": "NA", "Latitude": 50.0351987, "Longitude": -100.2445175 }, "geometry": { "type": "Point", "coordinates": [ -100.2445175, 50.0351987 ] } },
{ "type": "Feature", "properties": { "Number": "IL09", "Name": "Riverton", "Type": "ERS", "Subtype": "NA", "Emerg_Dept": "NA", "Latitude": 50.9964293, "Longitude": -97.0009505 }, "geometry": { "type": "Point", "coordinates": [ -97.0009505, 50.9964293 ] } },
{ "type": "Feature", "properties": { "Number": "PK04", "Name": "Roblin", "Type": "ERS", "Subtype": "NA", "Emerg_Dept": "NA", "Latitude": 51.2268815, "Longitude": -101.3630986 }, "geometry": { "type": "Point", "coordinates": [ -101.3630986, 51.2268815 ] } },
{ "type": "Feature", "properties": { "Number": "AS03", "Name": "Rossburn", "Type": "ERS", "Subtype": "NA", "Emerg_Dept": "NA", "Latitude": 50.66716587, "Longitude": -100.8046434 }, "geometry": { "type": "Point", "coordinates": [ -100.8046434, 50.66716587 ] } },
{ "type": "Feature", "properties": { "Number": "AS01", "Name": "Russell", "Type": "ERS", "Subtype": "NA", "Emerg_Dept": "NA", "Latitude": 50.77383286, "Longitude": -101.2767119 }, "geometry": { "type": "Point", "coordinates": [ -101.2767119, 50.77383286 ] } },
{ "type": "Feature", "properties": { "Number": "IL08", "Name": "Selkirk", "Type": "ERS", "Subtype": "NA", "Emerg_Dept": "NA", "Latitude": 50.1566934, "Longitude": -96.8852737 }, "geometry": { "type": "Point", "coordinates": [ -96.8852737, 50.1566934 ] } },
{ "type": "Feature", "properties": { "Number": "BR03", "Name": "Shilo", "Type": "ERS", "Subtype": "NA", "Emerg_Dept": "NA", "Latitude": 49.803115, "Longitude": -99.6438245 }, "geometry": { "type": "Point", "coordinates": [ -99.6438245, 49.803115 ] } },
{ "type": "Feature", "properties": { "Number": "AS05", "Name": "Shoal Lake", "Type": "ERS", "Subtype": "NA", "Emerg_Dept": "NA", "Latitude": 50.437821, "Longitude": -100.5952202 }, "geometry": { "type": "Point", "coordinates": [ -100.5952202, 50.437821 ] } },
{ "type": "Feature", "properties": { "Number": "AS18", "Name": "Souris", "Type": "ERS", "Subtype": "NA", "Emerg_Dept": "NA", "Latitude": 49.6146973, "Longitude": -100.2519615 }, "geometry": { "type": "Point", "coordinates": [ -100.2519615, 49.6146973 ] } },
{ "type": "Feature", "properties": { "Number": "SE01", "Name": "St. Anne", "Type": "ERS", "Subtype": "NA", "Emerg_Dept": "NA", "Latitude": 49.6678822, "Longitude": -96.6504688 }, "geometry": { "type": "Point", "coordinates": [ -96.6504688, 49.6678822 ] } },
{ "type": "Feature", "properties": { "Number": "IL19", "Name": "St. Laurent", "Type": "ERS", "Subtype": "NA", "Emerg_Dept": "NA", "Latitude": 50.4082493, "Longitude": -97.9418418 }, "geometry": { "type": "Point", "coordinates": [ -97.9418418, 50.4082493 ] } },
{ "type": "Feature", "properties": { "Number": "SE03", "Name": "St. Pierre", "Type": "ERS", "Subtype": "NA", "Emerg_Dept": "NA", "Latitude": 49.4449011, "Longitude": -96.9902111 }, "geometry": { "type": "Point", "coordinates": [ -96.9902111, 49.4449011 ] } },
{ "type": "Feature", "properties": { "Number": "PK08", "Name": "Ste. Rose du Lac", "Type": "ERS", "Subtype": "NA", "Emerg_Dept": "NA", "Latitude": 51.0579887, "Longitude": -99.5205227 }, "geometry": { "type": "Point", "coordinates": [ -99.5205227, 51.0579887 ] } },
{ "type": "Feature", "properties": { "Number": "SE02", "Name": "Steinbach", "Type": "ERS", "Subtype": "NA", "Emerg_Dept": "NA", "Latitude": 49.529734, "Longitude": -96.6801891 }, "geometry": { "type": "Point", "coordinates": [ -96.6801891, 49.529734 ] } },
{ "type": "Feature", "properties": { "Number": "IL01", "Name": "Stonewall", "Type": "ERS", "Subtype": "NA", "Emerg_Dept": "NA", "Latitude": 50.1311341, "Longitude": -97.3379952 }, "geometry": { "type": "Point", "coordinates": [ -97.3379952, 50.1311341 ] } },
{ "type": "Feature", "properties": { "Number": "CE04", "Name": "Swan Lake", "Type": "ERS", "Subtype": "NA", "Emerg_Dept": "NA", "Latitude": 49.4117534, "Longitude": -98.7876484 }, "geometry": { "type": "Point", "coordinates": [ -98.7876484, 49.4117534 ] } },
{ "type": "Feature", "properties": { "Number": "PK05", "Name": "Swan River", "Type": "ERS", "Subtype": "NA", "Emerg_Dept": "NA", "Latitude": 52.1062959, "Longitude": -101.2600935 }, "geometry": { "type": "Point", "coordinates": [ -101.2600935, 52.1062959 ] } },
{ "type": "Feature", "properties": { "Number": "IL02", "Name": "Teulon", "Type": "ERS", "Subtype": "NA", "Emerg_Dept": "NA", "Latitude": 50.3874555, "Longitude": -97.2575519 }, "geometry": { "type": "Point", "coordinates": [ -97.2575519, 50.3874555 ] } },
{ "type": "Feature", "properties": { "Number": "NO01", "Name": "The Pas", "Type": "ERS", "Subtype": "NA", "Emerg_Dept": "NA", "Latitude": 53.8266431, "Longitude": -101.2525333 }, "geometry": { "type": "Point", "coordinates": [ -101.2525333, 53.8266431 ] } },
{ "type": "Feature", "properties": { "Number": "BU07", "Name": "Thompson", "Type": "ERS", "Subtype": "NA", "Emerg_Dept": "NA", "Latitude": 55.7459171, "Longitude": -97.848462 }, "geometry": { "type": "Point", "coordinates": [ -97.848462, 55.7459171 ] } },
{ "type": "Feature", "properties": { "Number": "AS11", "Name": "Treherne", "Type": "ERS", "Subtype": "NA", "Emerg_Dept": "NA", "Latitude": 49.6334286, "Longitude": -98.7009772 }, "geometry": { "type": "Point", "coordinates": [ -98.7009772, 49.6334286 ] } },
{ "type": "Feature", "properties": { "Number": "AS22", "Name": "Virden", "Type": "ERS", "Subtype": "NA", "Emerg_Dept": "NA", "Latitude": 49.8549214, "Longitude": -100.9268326 }, "geometry": { "type": "Point", "coordinates": [ -100.9268326, 49.8549214 ] } },
{ "type": "Feature", "properties": { "Number": "SE04", "Name": "Vita", "Type": "ERS", "Subtype": "NA", "Emerg_Dept": "NA", "Latitude": 49.1354729, "Longitude": -96.5688007 }, "geometry": { "type": "Point", "coordinates": [ -96.5688007, 49.1354729 ] } },
{ "type": "Feature", "properties": { "Number": "IL11", "Name": "W. St. Paul", "Type": "ERS", "Subtype": "NA", "Emerg_Dept": "NA", "Latitude": 49.9794748, "Longitude": -97.0679003 }, "geometry": { "type": "Point", "coordinates": [ -97.0679003, 49.9794748 ] } },
{ "type": "Feature", "properties": { "Number": "BU08", "Name": "Wabowden", "Type": "ERS", "Subtype": "NA", "Emerg_Dept": "NA", "Latitude": 56.3462338, "Longitude": -94.7093534 }, "geometry": { "type": "Point", "coordinates": [ -94.7093534, 56.3462338 ] } },
{ "type": "Feature", "properties": { "Number": "PK06", "Name": "Waterhen", "Type": "ERS", "Subtype": "NA", "Emerg_Dept": "NA", "Latitude": 51.8303178, "Longitude": -99.5381006 }, "geometry": { "type": "Point", "coordinates": [ -99.5381006, 51.8303178 ] } },
{ "type": "Feature", "properties": { "Number": "NE06", "Name": "Whitemouth", "Type": "ERS", "Subtype": "NA", "Emerg_Dept": "NA", "Latitude": 49.9555235, "Longitude": -95.9751391 }, "geometry": { "type": "Point", "coordinates": [ -95.9751391, 49.9555235 ] } },
{ "type": "Feature", "properties": { "Number": "PK07", "Name": "Winnipegosis", "Type": "ERS", "Subtype": "NA", "Emerg_Dept": "NA", "Latitude": 51.6474051, "Longitude": -99.9293928 }, "geometry": { "type": "Point", "coordinates": [ -99.9293928, 51.6474051 ] } },
{ "type": "Feature", "properties": { "Number": "102", "Name": "Altona Community Memorial Health Centre", "Type": "Hospital", "Subtype": "Provincial", "Emerg_Dept": "Y", "Latitude": 49.10704772, "Longitude": -97.55164353000001 }, "geometry": { "type": "Point", "coordinates": [ -97.55164353, 49.10704772 ] } },
{ "type": "Feature", "properties": { "Number": "103", "Name": "Arborg & Districts Health Centre", "Type": "Hospital", "Subtype": "Provincial", "Emerg_Dept": "Y", "Latitude": 50.90611411, "Longitude": -97.2261858 }, "geometry": { "type": "Point", "coordinates": [ -97.2261858, 50.90611411 ] } },
{ "type": "Feature", "properties": { "Number": "107", "Name": "Beausejour Hospital", "Type": "Hospital", "Subtype": "Provincial", "Emerg_Dept": "Y", "Latitude": 50.0578827, "Longitude": -96.5200145 }, "geometry": { "type": "Point", "coordinates": [ -96.5200145, 50.0578827 ] } },
{ "type": "Feature", "properties": { "Number": "110", "Name": "Bethesda Regional Health Centre", "Type": "Hospital", "Subtype": "Provincial", "Emerg_Dept": "Y", "Latitude": 49.52981088, "Longitude": -96.68031983 }, "geometry": { "type": "Point", "coordinates": [ -96.68031983, 49.52981088 ] } },
{ "type": "Feature", "properties": { "Number": "113", "Name": "Boissevain Health Centre", "Type": "Hospital", "Subtype": "Provincial", "Emerg_Dept": "Y", "Latitude": 49.22537987, "Longitude": -100.0609314 }, "geometry": { "type": "Point", "coordinates": [ -100.0609314, 49.22537987 ] } },
{ "type": "Feature", "properties": { "Number": "114", "Name": "Boundary Trails Health Centre", "Type": "Hospital", "Subtype": "Provincial", "Emerg_Dept": "Y", "Latitude": 49.18900184, "Longitude": -98.00321256 }, "geometry": { "type": "Point", "coordinates": [ -98.00321256, 49.18900184 ] } },
{ "type": "Feature", "properties": { "Number": "1", "Name": "Brandon Regional Health Centre", "Type": "Hospital", "Subtype": "Provincial", "Emerg_Dept": "Y", "Latitude": 49.84035881, "Longitude": -99.93593843 }, "geometry": { "type": "Point", "coordinates": [ -99.93593843, 49.84035881 ] } },
{ "type": "Feature", "properties": { "Number": "135", "Name": "Carberry Plains Health Centre", "Type": "Hospital", "Subtype": "Provincial", "Emerg_Dept": "Y", "Latitude": 49.87194776, "Longitude": -99.3562083 }, "geometry": { "type": "Point", "coordinates": [ -99.3562083, 49.87194776 ] } },
{ "type": "Feature", "properties": { "Number": "116", "Name": "Carman Memorial Hospital", "Type": "Hospital", "Subtype": "Provincial", "Emerg_Dept": "Y", "Latitude": 49.49709677, "Longitude": -98.0082773 }, "geometry": { "type": "Point", "coordinates": [ -98.0082773, 49.49709677 ] } },
{ "type": "Feature", "properties": { "Number": "159", "Name": "Centre de santé Notre-Dame Health Centre", "Type": "Hospital", "Subtype": "Provincial", "Emerg_Dept": "Y", "Latitude": 49.53117874, "Longitude": -98.55568233 }, "geometry": { "type": "Point", "coordinates": [ -98.55568233, 49.53117874 ] } },
{ "type": "Feature", "properties": { "Number": "124", "Name": "Centre médico-social De Salaberry District Health Centre", "Type": "Hospital", "Subtype": "Provincial", "Emerg_Dept": "Y", "Latitude": 49.4444429, "Longitude": -96.98998633 }, "geometry": { "type": "Point", "coordinates": [ -96.98998633, 49.4444429 ] } },
{ "type": "Feature", "properties": { "Number": "130", "Name": "Churchill Health Centre", "Type": "Hospital", "Subtype": "Provincial", "Emerg_Dept": "Y", "Latitude": 58.77159335, "Longitude": -94.17026623 }, "geometry": { "type": "Point", "coordinates": [ -94.17026623, 58.77159335 ] } },
{ "type": "Feature", "properties": { "Number": "9", "Name": "Concordia Hospital", "Type": "Hospital", "Subtype": "Provincial", "Emerg_Dept": "Y", "Latitude": 49.91348475, "Longitude": -97.0646308 }, "geometry": { "type": "Point", "coordinates": [ -97.0646308, 49.91348475 ] } },
{ "type": "Feature", "properties": { "Number": "122", "Name": "Dauphin Regional Health Centre", "Type": "Hospital", "Subtype": "Provincial", "Emerg_Dept": "Y", "Latitude": 51.14724871, "Longitude": -100.062001 }, "geometry": { "type": "Point", "coordinates": [ -100.062001, 51.14724871 ] } },
{ "type": "Feature", "properties": { "Number": "19", "Name": "Deer Lodge Centre", "Type": "Hospital", "Subtype": "Provincial", "Emerg_Dept": "N", "Latitude": 49.87798594, "Longitude": -97.2355202 }, "geometry": { "type": "Point", "coordinates": [ -97.2355202, 49.87798594 ] } },
{ "type": "Feature", "properties": { "Number": "123", "Name": "Deloraine Health Centre", "Type": "Hospital", "Subtype": "Provincial", "Emerg_Dept": "Y", "Latitude": 49.19177635, "Longitude": -100.4986548 }, "geometry": { "type": "Point", "coordinates": [ -100.4986548, 49.19177635 ] } },
{ "type": "Feature", "properties": { "Number": "128", "Name": "E.M. Crowe Memorial Hospital", "Type": "Hospital", "Subtype": "Provincial", "Emerg_Dept": "Y", "Latitude": 50.86443766, "Longitude": -98.1049068 }, "geometry": { "type": "Point", "coordinates": [ -98.1049068, 50.86443766 ] } },
{ "type": "Feature", "properties": { "Number": "134", "Name": "Flin Flon General Hospital", "Type": "Hospital", "Subtype": "Provincial", "Emerg_Dept": "Y", "Latitude": 54.7654645, "Longitude": -101.8775382 }, "geometry": { "type": "Point", "coordinates": [ -101.8775382, 54.7654645 ] } },
{ "type": "Feature", "properties": { "Number": "136", "Name": "Gillam Hospital", "Type": "Hospital", "Subtype": "Provincial", "Emerg_Dept": "Y", "Latitude": 56.34647234, "Longitude": -94.7083708 }, "geometry": { "type": "Point", "coordinates": [ -94.7083708, 56.34647234 ] } },
{ "type": "Feature", "properties": { "Number": "139", "Name": "Glenboro Health Centre", "Type": "Hospital", "Subtype": "Provincial", "Emerg_Dept": "Y", "Latitude": 49.55950199, "Longitude": -99.28613485 }, "geometry": { "type": "Point", "coordinates": [ -99.28613485, 49.55950199 ] } },
{ "type": "Feature", "properties": { "Number": "3", "Name": "Grace Hospital", "Type": "Hospital", "Subtype": "Provincial", "Emerg_Dept": "Y", "Latitude": 49.88224223, "Longitude": -97.277446 }, "geometry": { "type": "Point", "coordinates": [ -97.277446, 49.88224223 ] } },
{ "type": "Feature", "properties": { "Number": "140", "Name": "Grandview District Hospital", "Type": "Hospital", "Subtype": "Provincial", "Emerg_Dept": "Y", "Latitude": 51.18007562, "Longitude": -100.6967026 }, "geometry": { "type": "Point", "coordinates": [ -100.6967026, 51.18007562 ] } },
{ "type": "Feature", "properties": { "Number": "143", "Name": "Hamiota Health Centre", "Type": "Hospital", "Subtype": "Provincial", "Emerg_Dept": "Y", "Latitude": 50.18213274, "Longitude": -100.5897444 }, "geometry": { "type": "Point", "coordinates": [ -100.5897444, 50.18213274 ] } },
{ "type": "Feature", "properties": { "Number": "16", "Name": "Health Sciences Centre", "Type": "Hospital", "Subtype": "Provincial", "Emerg_Dept": "Y", "Latitude": 49.90347209, "Longitude": -97.15658364 }, "geometry": { "type": "Point", "coordinates": [ -97.15658364, 49.90347209 ] } },
{ "type": "Feature", "properties": { "Number": "179", "Name": "Hôpital Ste-Anne Hospital", "Type": "Hospital", "Subtype": "Provincial", "Emerg_Dept": "Y", "Latitude": 49.66780938, "Longitude": -96.64820943 }, "geometry": { "type": "Point", "coordinates": [ -96.64820943, 49.66780938 ] } },
{ "type": "Feature", "properties": { "Number": "144", "Name": "Hunter Memorial Hospital", "Type": "Hospital", "Subtype": "Provincial", "Emerg_Dept": "Y", "Latitude": 50.38731923, "Longitude": -97.25486986 }, "geometry": { "type": "Point", "coordinates": [ -97.25486986, 50.38731923 ] } },
{ "type": "Feature", "properties": { "Number": "146", "Name": "Johnson Memorial Hospital", "Type": "Hospital", "Subtype": "Provincial", "Emerg_Dept": "Y", "Latitude": 50.62790646, "Longitude": -96.99399843 }, "geometry": { "type": "Point", "coordinates": [ -96.99399843, 50.62790646 ] } },
{ "type": "Feature", "properties": { "Number": "178", "Name": "Lakeshore General Hospital", "Type": "Hospital", "Subtype": "Provincial", "Emerg_Dept": "Y", "Latitude": 51.1803259, "Longitude": -98.35242953 }, "geometry": { "type": "Point", "coordinates": [ -98.35242953, 51.1803259 ] } },
{ "type": "Feature", "properties": { "Number": "147", "Name": "Lorne Memorial Hospital", "Type": "Hospital", "Subtype": "Provincial", "Emerg_Dept": "Y", "Latitude": 49.41235769, "Longitude": -98.78744726 }, "geometry": { "type": "Point", "coordinates": [ -98.78744726, 49.41235769 ] } },
{ "type": "Feature", "properties": { "Number": "149", "Name": "Lynn Lake Hospital", "Type": "Hospital", "Subtype": "Provincial", "Emerg_Dept": "Y", "Latitude": 56.85733534, "Longitude": -101.0431485 }, "geometry": { "type": "Point", "coordinates": [ -101.0431485, 56.85733534 ] } },
{ "type": "Feature", "properties": { "Number": "184", "Name": "Melita Health Centre", "Type": "Hospital", "Subtype": "Provincial", "Emerg_Dept": "Y", "Latitude": 49.27062987, "Longitude": -100.9968526 }, "geometry": { "type": "Point", "coordinates": [ -100.9968526, 49.27062987 ] } },
{ "type": "Feature", "properties": { "Number": "152", "Name": "Minnedosa Health Centre", "Type": "Hospital", "Subtype": "Provincial", "Emerg_Dept": "Y", "Latitude": 50.24137629, "Longitude": -99.83999473 }, "geometry": { "type": "Point", "coordinates": [ -99.83999473, 50.24137629 ] } },
{ "type": "Feature", "properties": { "Number": "4", "Name": "Misericordia Health Centre", "Type": "Hospital", "Subtype": "Provincial", "Emerg_Dept": "N", "Latitude": 49.87904917, "Longitude": -97.16050803 }, "geometry": { "type": "Point", "coordinates": [ -97.16050803, 49.87904917 ] } },
{ "type": "Feature", "properties": { "Number": "154", "Name": "Morris General Hospital", "Type": "Hospital", "Subtype": "Provincial", "Emerg_Dept": "Y", "Latitude": 49.35318521, "Longitude": -97.3606444 }, "geometry": { "type": "Point", "coordinates": [ -97.3606444, 49.35318521 ] } },
{ "type": "Feature", "properties": { "Number": "158", "Name": "Neepawa Health Centre", "Type": "Hospital", "Subtype": "Provincial", "Emerg_Dept": "Y", "Latitude": 50.23433287, "Longitude": -99.46140643 }, "geometry": { "type": "Point", "coordinates": [ -99.46140643, 50.23433287 ] } },
{ "type": "Feature", "properties": { "Number": "163", "Name": "Pinawa Hospital", "Type": "Hospital", "Subtype": "Provincial", "Emerg_Dept": "Y", "Latitude": 50.1513465, "Longitude": -95.88340683 }, "geometry": { "type": "Point", "coordinates": [ -95.88340683, 50.1513465 ] } },
{ "type": "Feature", "properties": { "Number": "161", "Name": "Pine Falls Hospital", "Type": "Hospital", "Subtype": "Provincial", "Emerg_Dept": "Y", "Latitude": 50.56337246, "Longitude": -96.21486018 }, "geometry": { "type": "Point", "coordinates": [ -96.21486018, 50.56337246 ] } },
{ "type": "Feature", "properties": { "Number": "162", "Name": "Portage District General Hospital", "Type": "Hospital", "Subtype": "Provincial", "Emerg_Dept": "Y", "Latitude": 49.96731277, "Longitude": -98.28172633 }, "geometry": { "type": "Point", "coordinates": [ -98.28172633, 49.96731277 ] } },
{ "type": "Feature", "properties": { "Number": "166", "Name": "Rivers Health Centre", "Type": "Hospital", "Subtype": "Provincial", "Emerg_Dept": "Y", "Latitude": 50.03527685, "Longitude": -100.2420538 }, "geometry": { "type": "Point", "coordinates": [ -100.2420538, 50.03527685 ] } },
{ "type": "Feature", "properties": { "Number": "6", "Name": "Riverview Health Centre", "Type": "Hospital", "Subtype": "Provincial", "Emerg_Dept": "N", "Latitude": 49.86890767, "Longitude": -97.11999257 }, "geometry": { "type": "Point", "coordinates": [ -97.11999257, 49.86890767 ] } },
{ "type": "Feature", "properties": { "Number": "165", "Name": "Roblin District Health Centre", "Type": "Hospital", "Subtype": "Provincial", "Emerg_Dept": "Y", "Latitude": 51.2274805, "Longitude": -101.3626424 }, "geometry": { "type": "Point", "coordinates": [ -101.3626424, 51.2274805 ] } },
{ "type": "Feature", "properties": { "Number": "119", "Name": "Rock Lake Health District Hospital", "Type": "Hospital", "Subtype": "Provincial", "Emerg_Dept": "Y", "Latitude": 49.15083132, "Longitude": -98.95051854 }, "geometry": { "type": "Point", "coordinates": [ -98.95051854, 49.15083132 ] } },
{ "type": "Feature", "properties": { "Number": "169", "Name": "Russell Health Centre", "Type": "Hospital", "Subtype": "Provincial", "Emerg_Dept": "Y", "Latitude": 50.77315999, "Longitude": -101.2772138 }, "geometry": { "type": "Point", "coordinates": [ -101.2772138, 50.77315999 ] } },
{ "type": "Feature", "properties": { "Number": "173", "Name": "Selkirk Regional Health Centre", "Type": "Hospital", "Subtype": "Provincial", "Emerg_Dept": "Y", "Latitude": 50.15748272, "Longitude": -96.88770307 }, "geometry": { "type": "Point", "coordinates": [ -96.88770307, 50.15748272 ] } },
{ "type": "Feature", "properties": { "Number": "11", "Name": "Seven Oaks General Hospital", "Type": "Hospital", "Subtype": "Provincial", "Emerg_Dept": "Y", "Latitude": 49.95542707, "Longitude": -97.14973433 }, "geometry": { "type": "Point", "coordinates": [ -97.14973433, 49.95542707 ] } },
{ "type": "Feature", "properties": { "Number": "111", "Name": "Snow Lake Health Centre", "Type": "Hospital", "Subtype": "Provincial", "Emerg_Dept": "Y", "Latitude": 54.8748875, "Longitude": -100.0165844 }, "geometry": { "type": "Point", "coordinates": [ -100.0165844, 54.8748875 ] } },
{ "type": "Feature", "properties": { "Number": "175", "Name": "Souris Health Centre", "Type": "Hospital", "Subtype": "Provincial", "Emerg_Dept": "Y", "Latitude": 49.61454882, "Longitude": -100.2491513 }, "geometry": { "type": "Point", "coordinates": [ -100.2491513, 49.61454882 ] } },
{ "type": "Feature", "properties": { "Number": "170", "Name": "St. Anthony's Hospital", "Type": "Hospital", "Subtype": "Provincial", "Emerg_Dept": "Y", "Latitude": 53.82740091, "Longitude": -101.2509283 }, "geometry": { "type": "Point", "coordinates": [ -101.2509283, 53.82740091 ] } },
{ "type": "Feature", "properties": { "Number": "5", "Name": "St. Boniface Hospital", "Type": "Hospital", "Subtype": "Provincial", "Emerg_Dept": "Y", "Latitude": 49.88429455, "Longitude": -97.1247487 }, "geometry": { "type": "Point", "coordinates": [ -97.1247487, 49.88429455 ] } },
{ "type": "Feature", "properties": { "Number": "172", "Name": "Ste. Rose General Hospital", "Type": "Hospital", "Subtype": "Provincial", "Emerg_Dept": "Y", "Latitude": 51.05788263, "Longitude": -99.51908116 }, "geometry": { "type": "Point", "coordinates": [ -99.51908116, 51.05788263 ] } },
{ "type": "Feature", "properties": { "Number": "176", "Name": "Stonewall & District Health Centre", "Type": "Hospital", "Subtype": "Provincial", "Emerg_Dept": "Y", "Latitude": 50.13120009, "Longitude": -97.33547007 }, "geometry": { "type": "Point", "coordinates": [ -97.33547007, 50.13120009 ] } },
{ "type": "Feature", "properties": { "Number": "177", "Name": "Swan Valley Health Centre", "Type": "Hospital", "Subtype": "Provincial", "Emerg_Dept": "Y", "Latitude": 52.10566189, "Longitude": -101.2612767 }, "geometry": { "type": "Point", "coordinates": [ -101.2612767, 52.10566189 ] } },
{ "type": "Feature", "properties": { "Number": "187", "Name": "Thompson General Hospital", "Type": "Hospital", "Subtype": "Provincial", "Emerg_Dept": "Y", "Latitude": 55.73510575, "Longitude": -97.85752203 }, "geometry": { "type": "Point", "coordinates": [ -97.85752203, 55.73510575 ] } },
{ "type": "Feature", "properties": { "Number": "183", "Name": "Tiger Hills Health Centre", "Type": "Hospital", "Subtype": "Provincial", "Emerg_Dept": "Y", "Latitude": 49.63346477, "Longitude": -98.6981919 }, "geometry": { "type": "Point", "coordinates": [ -98.6981919, 49.63346477 ] } },
{ "type": "Feature", "properties": { "Number": "148", "Name": "Tri-Lake Health Centre", "Type": "Hospital", "Subtype": "Provincial", "Emerg_Dept": "Y", "Latitude": 49.17572294, "Longitude": -99.6623124 }, "geometry": { "type": "Point", "coordinates": [ -99.6623124, 49.17572294 ] } },
{ "type": "Feature", "properties": { "Number": "7", "Name": "Victoria General Hospital", "Type": "Hospital", "Subtype": "Provincial", "Emerg_Dept": "Y", "Latitude": 49.80674472, "Longitude": -97.15323269 }, "geometry": { "type": "Point", "coordinates": [ -97.15323269, 49.80674472 ] } },
{ "type": "Feature", "properties": { "Number": "180", "Name": "Virden Health Centre", "Type": "Hospital", "Subtype": "Provincial", "Emerg_Dept": "Y", "Latitude": 49.85566724, "Longitude": -100.9240563 }, "geometry": { "type": "Point", "coordinates": [ -100.9240563, 49.85566724 ] } },
{ "type": "Feature", "properties": { "Number": "181", "Name": "Vita & District Health Centre", "Type": "Hospital", "Subtype": "Provincial", "Emerg_Dept": "Y", "Latitude": 49.13617027, "Longitude": -96.56476657 }, "geometry": { "type": "Point", "coordinates": [ -96.56476657, 49.13617027 ] } },
{ "type": "Feature", "properties": { "Number": "212", "Name": "Norway House Hospital", "Type": "Hospital", "Subtype": "Federal", "Emerg_Dept": "N", "Latitude": 53.97688628, "Longitude": -97.80120882 }, "geometry": { "type": "Point", "coordinates": [ -97.80120882, 53.97688628 ] } },
{ "type": "Feature", "properties": { "Number": "210", "Name": "Percy E. Moore Hospital", "Type": "Hospital", "Subtype": "Federal", "Emerg_Dept": "N", "Latitude": 51.21612787, "Longitude": -97.57354997 }, "geometry": { "type": "Point", "coordinates": [ -97.57354997, 51.21612787 ] } },
{ "type": "Feature", "properties": { "Number": "125", "Name": "Eden Mental Health Centre", "Type": "Hospital", "Subtype": "Provincial Psychiatric", "Emerg_Dept": "N", "Latitude": 49.17689581, "Longitude": -97.95661679 }, "geometry": { "type": "Point", "coordinates": [ -97.95661679, 49.17689581 ] } },
{ "type": "Feature", "properties": { "Number": "46", "Name": "Selkirk Mental Health Centre", "Type": "Hospital", "Subtype": "Provincial Psychiatric", "Emerg_Dept": "N", "Latitude": 50.15314127, "Longitude": -96.88802196 }, "geometry": { "type": "Point", "coordinates": [ -96.88802196, 50.15314127 ] } },
{ "type": "Feature", "properties": { "Number": "106", "Name": "Baldur Health Centre", "Type": "Hospital", "Subtype": "Provincial", "Emerg_Dept": "Y", "Latitude": 49.3856081, "Longitude": -99.24011603 }, "geometry": { "type": "Point", "coordinates": [ -99.24011603, 49.3856081 ] } },
{ "type": "Feature", "properties": { "Number": "108", "Name": "Benito Health Centre", "Type": "Hospital", "Subtype": "Provincial", "Emerg_Dept": "N", "Latitude": 51.91695554, "Longitude": -101.5464643 }, "geometry": { "type": "Point", "coordinates": [ -101.5464643, 51.91695554 ] } },
{ "type": "Feature", "properties": { "Number": "171", "Name": "Birtle Health Centre", "Type": "Hospital", "Subtype": "Provincial", "Emerg_Dept": "Y", "Latitude": 50.42611846, "Longitude": -101.045759 }, "geometry": { "type": "Point", "coordinates": [ -101.045759, 50.42611846 ] } },
{ "type": "Feature", "properties": { "Number": "182", "Name": "Centre de santé St. Claude Health Centre", "Type": "Hospital", "Subtype": "Provincial", "Emerg_Dept": "Y", "Latitude": 49.65375998, "Longitude": -98.34496362 }, "geometry": { "type": "Point", "coordinates": [ -98.34496362, 49.65375998 ] } },
{ "type": "Feature", "properties": { "Number": "131", "Name": "Emerson Health Centre", "Type": "Hospital", "Subtype": "Provincial", "Emerg_Dept": "Y", "Latitude": 49.005452, "Longitude": -97.21600623 }, "geometry": { "type": "Point", "coordinates": [ -97.21600623, 49.005452 ] } },
{ "type": "Feature", "properties": { "Number": "129", "Name": "Erickson Health Centre", "Type": "Hospital", "Subtype": "Provincial", "Emerg_Dept": "Y", "Latitude": 50.49707522, "Longitude": -99.91288556000001 }, "geometry": { "type": "Point", "coordinates": [ -99.91288556, 50.49707522 ] } },
{ "type": "Feature", "properties": { "Number": "138", "Name": "Gladstone Health Centre", "Type": "Hospital", "Subtype": "Provincial", "Emerg_Dept": "Y", "Latitude": 50.22507163, "Longitude": -98.94341344 }, "geometry": { "type": "Point", "coordinates": [ -98.94341344, 50.22507163 ] } },
{ "type": "Feature", "properties": { "Number": "156", "Name": "MacGregor Health Centre", "Type": "Hospital", "Subtype": "Provincial", "Emerg_Dept": "Y", "Latitude": 49.96251292, "Longitude": -98.77544087 }, "geometry": { "type": "Point", "coordinates": [ -98.77544087, 49.96251292 ] } },
{ "type": "Feature", "properties": { "Number": "150", "Name": "McCreary/Alonsa Health Centre", "Type": "Hospital", "Subtype": "Provincial", "Emerg_Dept": "Y", "Latitude": 50.77225779, "Longitude": -99.48641803 }, "geometry": { "type": "Point", "coordinates": [ -99.48641803, 50.77225779 ] } },
{ "type": "Feature", "properties": { "Number": "151", "Name": "Pembina Manitou Health Centre", "Type": "Hospital", "Subtype": "Provincial", "Emerg_Dept": "Y", "Latitude": 49.24171146, "Longitude": -98.54412016000001 }, "geometry": { "type": "Point", "coordinates": [ -98.54412016, 49.24171146 ] } },
{ "type": "Feature", "properties": { "Number": "164", "Name": "Reston Health Centre", "Type": "Hospital", "Subtype": "Provincial", "Emerg_Dept": "Y", "Latitude": 49.56135051, "Longitude": -101.0998878 }, "geometry": { "type": "Point", "coordinates": [ -101.0998878, 49.56135051 ] } },
{ "type": "Feature", "properties": { "Number": "167", "Name": "Rossburn Health Centre", "Type": "Hospital", "Subtype": "Provincial", "Emerg_Dept": "Y", "Latitude": 50.66711297, "Longitude": -100.8043865 }, "geometry": { "type": "Point", "coordinates": [ -100.8043865, 50.66711297 ] } },
{ "type": "Feature", "properties": { "Number": "174", "Name": "Shoal Lake/Strathclair Health Centre", "Type": "Hospital", "Subtype": "Provincial", "Emerg_Dept": "Y", "Latitude": 50.43869924, "Longitude": -100.5947764 }, "geometry": { "type": "Point", "coordinates": [ -100.5947764, 50.43869924 ] } },
{ "type": "Feature", "properties": { "Number": "186", "Name": "Wawanesa Health Centre", "Type": "Hospital", "Subtype": "Provincial", "Emerg_Dept": "Y", "Latitude": 49.59551682, "Longitude": -99.69366763 }, "geometry": { "type": "Point", "coordinates": [ -99.69366763, 49.59551682 ] } },
{ "type": "Feature", "properties": { "Number": "118", "Name": "Winnipegosis & District Health Centre", "Type": "Hospital", "Subtype": "Provincial", "Emerg_Dept": "Y", "Latitude": 51.6402783, "Longitude": -99.93224949 }, "geometry": { "type": "Point", "coordinates": [ -99.93224949, 51.6402783 ] } },
{ "type": "Feature", "properties": { "Number": "287", "Name": "Berens River Nursing Station", "Type": "Nursing Station", "Subtype": "Federal", "Emerg_Dept": "NA", "Latitude": 52.36567688, "Longitude": -97.03260822 }, "geometry": { "type": "Point", "coordinates": [ -97.03260822, 52.36567688 ] } },
{ "type": "Feature", "properties": { "Number": "288", "Name": "Bloodvein Nursing Station", "Type": "Nursing Station", "Subtype": "Federal", "Emerg_Dept": "NA", "Latitude": 51.78229993, "Longitude": -96.6990279 }, "geometry": { "type": "Point", "coordinates": [ -96.6990279, 51.78229993 ] } },
{ "type": "Feature", "properties": { "Number": "282", "Name": "Brochet/Barren Lands Nursing Station", "Type": "Nursing Station", "Subtype": "Federal", "Emerg_Dept": "NA", "Latitude": 57.88067769, "Longitude": -101.6692297 }, "geometry": { "type": "Point", "coordinates": [ -101.6692297, 57.88067769 ] } },
{ "type": "Feature", "properties": { "Number": "271", "Name": "Cross Lake Nursing Station", "Type": "Nursing Station", "Subtype": "Federal", "Emerg_Dept": "NA", "Latitude": 54.62735555, "Longitude": -97.77959933 }, "geometry": { "type": "Point", "coordinates": [ -97.77959933, 54.62735555 ] } },
{ "type": "Feature", "properties": { "Number": "273", "Name": "Garden Hill Nursing Station", "Type": "Nursing Station", "Subtype": "Federal", "Emerg_Dept": "NA", "Latitude": 53.8727534, "Longitude": -94.65392897 }, "geometry": { "type": "Point", "coordinates": [ -94.65392897, 53.8727534 ] } },
{ "type": "Feature", "properties": { "Number": "272", "Name": "God’s Lake Nursing Station", "Type": "Nursing Station", "Subtype": "Federal", "Emerg_Dept": "NA", "Latitude": 54.54998882, "Longitude": -94.46122096000001 }, "geometry": { "type": "Point", "coordinates": [ -94.46122096, 54.54998882 ] } },
{ "type": "Feature", "properties": { "Number": "291", "Name": "God’s River/Manto Sipi Nursing Station", "Type": "Nursing Station", "Subtype": "Federal", "Emerg_Dept": "NA", "Latitude": 54.83513198, "Longitude": -94.06681632 }, "geometry": { "type": "Point", "coordinates": [ -94.06681632, 54.83513198 ] } },
{ "type": "Feature", "properties": { "Number": "290", "Name": "Lac Brochet/Northlands Nursing Station", "Type": "Nursing Station", "Subtype": "Federal", "Emerg_Dept": "NA", "Latitude": 58.6211042, "Longitude": -101.4882831 }, "geometry": { "type": "Point", "coordinates": [ -101.4882831, 58.6211042 ] } },
{ "type": "Feature", "properties": { "Number": "274", "Name": "Little Grand Rapids Nursing Station", "Type": "Nursing Station", "Subtype": "Federal", "Emerg_Dept": "NA", "Latitude": 52.01654846, "Longitude": -95.45788027 }, "geometry": { "type": "Point", "coordinates": [ -95.45788027, 52.01654846 ] } },
{ "type": "Feature", "properties": { "Number": "277", "Name": "Nelson House/Nisichawayasihk Nursing Station", "Type": "Nursing Station", "Subtype": "Federal", "Emerg_Dept": "NA", "Latitude": 55.78446254, "Longitude": -98.88362999 }, "geometry": { "type": "Point", "coordinates": [ -98.88362999, 55.78446254 ] } },
{ "type": "Feature", "properties": { "Number": "278", "Name": "Oxford House/Bunibonibee Nursing Station", "Type": "Nursing Station", "Subtype": "Federal", "Emerg_Dept": "NA", "Latitude": 54.93308732, "Longitude": -95.29259373 }, "geometry": { "type": "Point", "coordinates": [ -95.29259373, 54.93308732 ] } },
{ "type": "Feature", "properties": { "Number": "270", "Name": "Pauingassi Nursing Station", "Type": "Nursing Station", "Subtype": "Federal", "Emerg_Dept": "NA", "Latitude": 52.1576234, "Longitude": -95.37409316 }, "geometry": { "type": "Point", "coordinates": [ -95.37409316, 52.1576234 ] } },
{ "type": "Feature", "properties": { "Number": "285", "Name": "Poplar River Nursing Station", "Type": "Nursing Station", "Subtype": "Federal", "Emerg_Dept": "NA", "Latitude": 52.99475381, "Longitude": -97.27832303 }, "geometry": { "type": "Point", "coordinates": [ -97.27832303, 52.99475381 ] } },
{ "type": "Feature", "properties": { "Number": "281", "Name": "Pukatawagan/Mathias Colomb Nursing Station", "Type": "Nursing Station", "Subtype": "Federal", "Emerg_Dept": "NA", "Latitude": 55.74739202, "Longitude": -101.3204992 }, "geometry": { "type": "Point", "coordinates": [ -101.3204992, 55.74739202 ] } },
{ "type": "Feature", "properties": { "Number": "289", "Name": "Red Sucker Lake Nursing Station", "Type": "Nursing Station", "Subtype": "Federal", "Emerg_Dept": "NA", "Latitude": 54.16610132, "Longitude": -93.55521875 }, "geometry": { "type": "Point", "coordinates": [ -93.55521875, 54.16610132 ] } },
{ "type": "Feature", "properties": { "Number": "284", "Name": "Shamattawa Nursing Station", "Type": "Nursing Station", "Subtype": "Federal", "Emerg_Dept": "NA", "Latitude": 55.87281004, "Longitude": -92.09830771 }, "geometry": { "type": "Point", "coordinates": [ -92.09830771, 55.87281004 ] } },
{ "type": "Feature", "properties": { "Number": "283", "Name": "South Indian Lake/O-Pipon-Na-Piwin Nursing Station", "Type": "Nursing Station", "Subtype": "Federal", "Emerg_Dept": "NA", "Latitude": 56.78056835, "Longitude": -98.93035573 }, "geometry": { "type": "Point", "coordinates": [ -98.93035573, 56.78056835 ] } },
{ "type": "Feature", "properties": { "Number": "279", "Name": "Split Lake/Tataskweyak Nursing Station", "Type": "Nursing Station", "Subtype": "Federal", "Emerg_Dept": "NA", "Latitude": 56.24468799, "Longitude": -96.08823806 }, "geometry": { "type": "Point", "coordinates": [ -96.08823806, 56.24468799 ] } },
{ "type": "Feature", "properties": { "Number": "280", "Name": "St. Theresa Point Nursing Station", "Type": "Nursing Station", "Subtype": "Federal", "Emerg_Dept": "NA", "Latitude": 53.81753927, "Longitude": -94.85124537 }, "geometry": { "type": "Point", "coordinates": [ -94.85124537, 53.81753927 ] } },
{ "type": "Feature", "properties": { "Number": "292", "Name": "Tadoule Lake/Sayisi Nursing Station", "Type": "Nursing Station", "Subtype": "Federal", "Emerg_Dept": "NA", "Latitude": 58.71509653, "Longitude": -98.48326424 }, "geometry": { "type": "Point", "coordinates": [ -98.48326424, 58.71509653 ] } },
{ "type": "Feature", "properties": { "Number": "286", "Name": "Wasagamack Nursing Station", "Type": "Nursing Station", "Subtype": "Federal", "Emerg_Dept": "NA", "Latitude": 53.88942848, "Longitude": -94.95264299 }, "geometry": { "type": "Point", "coordinates": [ -94.95264299, 53.88942848 ] } },
{ "type": "Feature", "properties": { "Number": "293", "Name": "York Landing Nursing Station", "Type": "Nursing Station", "Subtype": "Federal", "Emerg_Dept": "NA", "Latitude": 56.08712997, "Longitude": -96.09793677 }, "geometry": { "type": "Point", "coordinates": [ -96.09793677, 56.08712997 ] } },
{ "type": "Feature", "properties": { "Number": "304", "Name": "Easterville/Chemawawin Nursing Station", "Type": "Nursing Station", "Subtype": "Provincial", "Emerg_Dept": "NA", "Latitude": 53.10354723, "Longitude": -99.80810227000001 }, "geometry": { "type": "Point", "coordinates": [ -99.80810227, 53.10354723 ] } },
{ "type": "Feature", "properties": { "Number": "168", "Name": "Grand Rapids/Misipawistik Nursing Station", "Type": "Nursing Station", "Subtype": "Provincial", "Emerg_Dept": "NA", "Latitude": 53.18019168, "Longitude": -99.25573566 }, "geometry": { "type": "Point", "coordinates": [ -99.25573566, 53.18019168 ] } },
{ "type": "Feature", "properties": { "Number": "306", "Name": "Moose Lake/Mosakahiken Nursing Station", "Type": "Nursing Station", "Subtype": "Provincial", "Emerg_Dept": "NA", "Latitude": 53.70499512, "Longitude": -100.3438251 }, "geometry": { "type": "Point", "coordinates": [ -100.3438251, 53.70499512 ] } },
{ "type": "Feature", "properties": { "Number": "688", "Name": "Actionmarguerite (Saint-Boniface) Inc.", "Type": "PCH", "Subtype": "Non-Proprietary", "Emerg_Dept": "NA", "Latitude": 49.88817354, "Longitude": -97.1216833 }, "geometry": { "type": "Point", "coordinates": [ -97.1216833, 49.88817354 ] } },
{ "type": "Feature", "properties": { "Number": "667", "Name": "Actionmarguerite (Saint-Joseph) Inc", "Type": "PCH", "Subtype": "Non-Proprietary", "Emerg_Dept": "NA", "Latitude": 49.95649307, "Longitude": -97.15427855 }, "geometry": { "type": "Point", "coordinates": [ -97.15427855, 49.95649307 ] } },
{ "type": "Feature", "properties": { "Number": "626", "Name": "Actionmarguerite (Saint-Vital) Inc.", "Type": "PCH", "Subtype": "Non-Proprietary", "Emerg_Dept": "NA", "Latitude": 49.81627803, "Longitude": -97.13146306 }, "geometry": { "type": "Point", "coordinates": [ -97.13146306, 49.81627803 ] } },
{ "type": "Feature", "properties": { "Number": "604", "Name": "Ashern PCH", "Type": "PCH", "Subtype": "Non-Proprietary", "Emerg_Dept": "NA", "Latitude": 51.1800683, "Longitude": -98.35241199 }, "geometry": { "type": "Point", "coordinates": [ -98.35241199, 51.1800683 ] } },
{ "type": "Feature", "properties": { "Number": "602", "Name": "Baldur Manor", "Type": "PCH", "Subtype": "Non-Proprietary", "Emerg_Dept": "NA", "Latitude": 49.38518366, "Longitude": -99.24010273 }, "geometry": { "type": "Point", "coordinates": [ -99.24010273, 49.38518366 ] } },
{ "type": "Feature", "properties": { "Number": "601", "Name": "Bayside PCH", "Type": "PCH", "Subtype": "Non-Proprietary", "Emerg_Dept": "NA", "Latitude": 49.17587725, "Longitude": -99.66255917 }, "geometry": { "type": "Point", "coordinates": [ -99.66255917, 49.17587725 ] } },
{ "type": "Feature", "properties": { "Number": "108", "Name": "Benito Health Centre", "Type": "PCH", "Subtype": "Non-Proprietary", "Emerg_Dept": "NA", "Latitude": 51.91695554, "Longitude": -101.5464643 }, "geometry": { "type": "Point", "coordinates": [ -101.5464643, 51.91695554 ] } },
{ "type": "Feature", "properties": { "Number": "603", "Name": "Betel Home (Gimli)", "Type": "PCH", "Subtype": "Non-Proprietary", "Emerg_Dept": "NA", "Latitude": 50.63034976, "Longitude": -96.9864196 }, "geometry": { "type": "Point", "coordinates": [ -96.9864196, 50.63034976 ] } },
{ "type": "Feature", "properties": { "Number": "605", "Name": "Betel Home (Selkirk)", "Type": "PCH", "Subtype": "Non-Proprietary", "Emerg_Dept": "NA", "Latitude": 50.13016282, "Longitude": -96.88882769 }, "geometry": { "type": "Point", "coordinates": [ -96.88882769, 50.13016282 ] } },
{ "type": "Feature", "properties": { "Number": "607", "Name": "Bethania Mennonite PCH, Inc.", "Type": "PCH", "Subtype": "Non-Proprietary", "Emerg_Dept": "NA", "Latitude": 49.91380934, "Longitude": -97.06714028 }, "geometry": { "type": "Point", "coordinates": [ -97.06714028, 49.91380934 ] } },
{ "type": "Feature", "properties": { "Number": "609", "Name": "Bethesda Place", "Type": "PCH", "Subtype": "Non-Proprietary", "Emerg_Dept": "NA", "Latitude": 49.53036487, "Longitude": -96.6807632 }, "geometry": { "type": "Point", "coordinates": [ -96.6807632, 49.53036487 ] } },
{ "type": "Feature", "properties": { "Number": "677", "Name": "Birch Lodge PCH", "Type": "PCH", "Subtype": "Non-Proprietary", "Emerg_Dept": "NA", "Latitude": 50.18180997, "Longitude": -100.5897444 }, "geometry": { "type": "Point", "coordinates": [ -100.5897444, 50.18180997 ] } },
{ "type": "Feature", "properties": { "Number": "611", "Name": "Boyne Lodge PCH", "Type": "PCH", "Subtype": "Non-Proprietary", "Emerg_Dept": "NA", "Latitude": 49.5022057, "Longitude": -98.00826573000001 }, "geometry": { "type": "Point", "coordinates": [ -98.00826573, 49.5022057 ] } },
{ "type": "Feature", "properties": { "Number": "613", "Name": "Bren-Del-Win Lodge", "Type": "PCH", "Subtype": "Non-Proprietary", "Emerg_Dept": "NA", "Latitude": 49.19208815, "Longitude": -100.4986236 }, "geometry": { "type": "Point", "coordinates": [ -100.4986236, 49.19208815 ] } },
{ "type": "Feature", "properties": { "Number": "506", "Name": "Calvary Place PCH", "Type": "PCH", "Subtype": "Non-Proprietary", "Emerg_Dept": "NA", "Latitude": 49.89870855, "Longitude": -97.18377793000001 }, "geometry": { "type": "Point", "coordinates": [ -97.18377793, 49.89870855 ] } },
{ "type": "Feature", "properties": { "Number": "616", "Name": "Carberry PCH", "Type": "PCH", "Subtype": "Non-Proprietary", "Emerg_Dept": "NA", "Latitude": 49.87195467, "Longitude": -99.35621903000001 }, "geometry": { "type": "Point", "coordinates": [ -99.35621903, 49.87195467 ] } },
{ "type": "Feature", "properties": { "Number": "573", "Name": "Concordia Place", "Type": "PCH", "Subtype": "Non-Proprietary", "Emerg_Dept": "NA", "Latitude": 49.91273597, "Longitude": -97.06274337000001 }, "geometry": { "type": "Point", "coordinates": [ -97.06274337, 49.91273597 ] } },
{ "type": "Feature", "properties": { "Number": "621", "Name": "Country Meadows PCH", "Type": "PCH", "Subtype": "Non-Proprietary", "Emerg_Dept": "NA", "Latitude": 50.22257938, "Longitude": -99.49061073 }, "geometry": { "type": "Point", "coordinates": [ -99.49061073, 50.22257938 ] } },
{ "type": "Feature", "properties": { "Number": "666", "Name": "Crocus Court PCH", "Type": "PCH", "Subtype": "Non-Proprietary", "Emerg_Dept": "NA", "Latitude": 51.2275032, "Longitude": -101.362086 }, "geometry": { "type": "Point", "coordinates": [ -101.362086, 51.2275032 ] } },
{ "type": "Feature", "properties": { "Number": "614", "Name": "Dauphin PCH", "Type": "PCH", "Subtype": "Non-Proprietary", "Emerg_Dept": "NA", "Latitude": 51.14724714, "Longitude": -100.0619879 }, "geometry": { "type": "Point", "coordinates": [ -100.0619879, 51.14724714 ] } },
{ "type": "Feature", "properties": { "Number": "19", "Name": "Deer Lodge Centre", "Type": "PCH", "Subtype": "Non-Proprietary", "Emerg_Dept": "NA", "Latitude": 49.87798594, "Longitude": -97.2355202 }, "geometry": { "type": "Point", "coordinates": [ -97.2355202, 49.87798594 ] } },
{ "type": "Feature", "properties": { "Number": "618", "Name": "Delwynda Court PCH", "Type": "PCH", "Subtype": "Non-Proprietary", "Emerg_Dept": "NA", "Latitude": 49.19165075, "Longitude": -100.4985484 }, "geometry": { "type": "Point", "coordinates": [ -100.4985484, 49.19165075 ] } },
{ "type": "Feature", "properties": { "Number": "599", "Name": "Dinsdale PCH", "Type": "PCH", "Subtype": "Non-Proprietary", "Emerg_Dept": "NA", "Latitude": 49.84160097, "Longitude": -99.9462698 }, "geometry": { "type": "Point", "coordinates": [ -99.9462698, 49.84160097 ] } },
{ "type": "Feature", "properties": { "Number": "619", "Name": "Donwood Manor PCH Inc.", "Type": "PCH", "Subtype": "Non-Proprietary", "Emerg_Dept": "NA", "Latitude": 49.94557277, "Longitude": -97.07817116 }, "geometry": { "type": "Point", "coordinates": [ -97.07817116, 49.94557277 ] } },
{ "type": "Feature", "properties": { "Number": "592", "Name": "Douglas Campbell Lodge", "Type": "PCH", "Subtype": "Non-Proprietary", "Emerg_Dept": "NA", "Latitude": 49.96834777, "Longitude": -98.27905057 }, "geometry": { "type": "Point", "coordinates": [ -98.27905057, 49.96834777 ] } },
{ "type": "Feature", "properties": { "Number": "638", "Name": "Dr Gendreau PCH", "Type": "PCH", "Subtype": "Non-Proprietary", "Emerg_Dept": "NA", "Latitude": 51.05701913, "Longitude": -99.51667333 }, "geometry": { "type": "Point", "coordinates": [ -99.51667333, 51.05701913 ] } },
{ "type": "Feature", "properties": { "Number": "620", "Name": "East-Gate Lodge PCH", "Type": "PCH", "Subtype": "Non-Proprietary", "Emerg_Dept": "NA", "Latitude": 50.05385919, "Longitude": -96.51362487 }, "geometry": { "type": "Point", "coordinates": [ -96.51362487, 50.05385919 ] } },
{ "type": "Feature", "properties": { "Number": "600", "Name": "Eastview Place", "Type": "PCH", "Subtype": "Non-Proprietary", "Emerg_Dept": "NA", "Latitude": 49.1073888, "Longitude": -97.55004422 }, "geometry": { "type": "Point", "coordinates": [ -97.55004422, 49.1073888 ] } },
{ "type": "Feature", "properties": { "Number": "591", "Name": "Elkwood Manor", "Type": "PCH", "Subtype": "Non-Proprietary", "Emerg_Dept": "NA", "Latitude": 49.97595758, "Longitude": -101.233776 }, "geometry": { "type": "Point", "coordinates": [ -101.233776, 49.97595758 ] } },
{ "type": "Feature", "properties": { "Number": "131", "Name": "Emerson Health Centre", "Type": "PCH", "Subtype": "Non-Proprietary", "Emerg_Dept": "NA", "Latitude": 49.005452, "Longitude": -97.21600623 }, "geometry": { "type": "Point", "coordinates": [ -97.21600623, 49.005452 ] } },
{ "type": "Feature", "properties": { "Number": "550", "Name": "Erickson & District Health Centre", "Type": "PCH", "Subtype": "Non-Proprietary", "Emerg_Dept": "NA", "Latitude": 50.49591487, "Longitude": -99.90879171 }, "geometry": { "type": "Point", "coordinates": [ -99.90879171, 50.49591487 ] } },
{ "type": "Feature", "properties": { "Number": "606", "Name": "Eriksdale PCH", "Type": "PCH", "Subtype": "Non-Proprietary", "Emerg_Dept": "NA", "Latitude": 50.86444433, "Longitude": -98.10409749 }, "geometry": { "type": "Point", "coordinates": [ -98.10409749, 50.86444433 ] } },
{ "type": "Feature", "properties": { "Number": "610", "Name": "Evergreen PCH", "Type": "PCH", "Subtype": "Non-Proprietary", "Emerg_Dept": "NA", "Latitude": 49.22527458, "Longitude": -100.0604953 }, "geometry": { "type": "Point", "coordinates": [ -100.0604953, 49.22527458 ] } },
{ "type": "Feature", "properties": { "Number": "625", "Name": "Fairview Home", "Type": "PCH", "Subtype": "Non-Proprietary", "Emerg_Dept": "NA", "Latitude": 49.82874522, "Longitude": -99.95470505 }, "geometry": { "type": "Point", "coordinates": [ -99.95470505, 49.82874522 ] } },
{ "type": "Feature", "properties": { "Number": "556", "Name": "Fisher PCH", "Type": "PCH", "Subtype": "Non-Proprietary", "Emerg_Dept": "NA", "Latitude": 51.07979015, "Longitude": -97.61634725 }, "geometry": { "type": "Point", "coordinates": [ -97.61634725, 51.07979015 ] } },
{ "type": "Feature", "properties": { "Number": "622", "Name": "Flin Flon PCH", "Type": "PCH", "Subtype": "Non-Proprietary", "Emerg_Dept": "NA", "Latitude": 54.76548926, "Longitude": -101.877506 }, "geometry": { "type": "Point", "coordinates": [ -101.877506, 54.76548926 ] } },
{ "type": "Feature", "properties": { "Number": "629", "Name": "Foyer Notre Dame", "Type": "PCH", "Subtype": "Non-Proprietary", "Emerg_Dept": "NA", "Latitude": 49.53186164, "Longitude": -98.55523825 }, "geometry": { "type": "Point", "coordinates": [ -98.55523825, 49.53186164 ] } },
{ "type": "Feature", "properties": { "Number": "628", "Name": "Fred Douglas Lodge", "Type": "PCH", "Subtype": "Non-Proprietary", "Emerg_Dept": "NA", "Latitude": 49.92933087, "Longitude": -97.17571812 }, "geometry": { "type": "Point", "coordinates": [ -97.17571812, 49.92933087 ] } },
{ "type": "Feature", "properties": { "Number": "552", "Name": "Gilbert Plains Health Centre", "Type": "PCH", "Subtype": "Non-Proprietary", "Emerg_Dept": "NA", "Latitude": 51.14961058, "Longitude": -100.4839464 }, "geometry": { "type": "Point", "coordinates": [ -100.4839464, 51.14961058 ] } },
{ "type": "Feature", "properties": { "Number": "698", "Name": "Glenboro PCH", "Type": "PCH", "Subtype": "Non-Proprietary", "Emerg_Dept": "NA", "Latitude": 49.55916357, "Longitude": -99.28554919 }, "geometry": { "type": "Point", "coordinates": [ -99.28554919, 49.55916357 ] } },
{ "type": "Feature", "properties": { "Number": "685", "Name": "Golden Links Lodge", "Type": "PCH", "Subtype": "Non-Proprietary", "Emerg_Dept": "NA", "Latitude": 49.80173032, "Longitude": -97.11677187 }, "geometry": { "type": "Point", "coordinates": [ -97.11677187, 49.80173032 ] } },
{ "type": "Feature", "properties": { "Number": "632", "Name": "Golden West Centennial Lodge", "Type": "PCH", "Subtype": "Non-Proprietary", "Emerg_Dept": "NA", "Latitude": 49.88857293, "Longitude": -97.28839199 }, "geometry": { "type": "Point", "coordinates": [ -97.28839199, 49.88857293 ] } },
{ "type": "Feature", "properties": { "Number": "631", "Name": "Goodwin Lodge PCH", "Type": "PCH", "Subtype": "Non-Proprietary", "Emerg_Dept": "NA", "Latitude": 50.38704264, "Longitude": -97.25491249 }, "geometry": { "type": "Point", "coordinates": [ -97.25491249, 50.38704264 ] } },
{ "type": "Feature", "properties": { "Number": "633", "Name": "Grandview PCH", "Type": "PCH", "Subtype": "Non-Proprietary", "Emerg_Dept": "NA", "Latitude": 51.18007562, "Longitude": -100.6967026 }, "geometry": { "type": "Point", "coordinates": [ -100.6967026, 51.18007562 ] } },
{ "type": "Feature", "properties": { "Number": "584", "Name": "Hartney Community Health Centre", "Type": "PCH", "Subtype": "Non-Proprietary", "Emerg_Dept": "NA", "Latitude": 49.48468058, "Longitude": -100.5271339 }, "geometry": { "type": "Point", "coordinates": [ -100.5271339, 49.48468058 ] } },
{ "type": "Feature", "properties": { "Number": "634", "Name": "Heritage Life PCH", "Type": "PCH", "Subtype": "Non-Proprietary", "Emerg_Dept": "NA", "Latitude": 49.60288347, "Longitude": -97.04777894 }, "geometry": { "type": "Point", "coordinates": [ -97.04777894, 49.60288347 ] } },
{ "type": "Feature", "properties": { "Number": "635", "Name": "Holy Family Home", "Type": "PCH", "Subtype": "Non-Proprietary", "Emerg_Dept": "NA", "Latitude": 49.91657992, "Longitude": -97.13020431 }, "geometry": { "type": "Point", "coordinates": [ -97.13020431, 49.91657992 ] } },
{ "type": "Feature", "properties": { "Number": "504", "Name": "Kin Place PCH", "Type": "PCH", "Subtype": "Non-Proprietary", "Emerg_Dept": "NA", "Latitude": 49.94416956, "Longitude": -96.8409855 }, "geometry": { "type": "Point", "coordinates": [ -96.8409855, 49.94416956 ] } },
{ "type": "Feature", "properties": { "Number": "566", "Name": "Lac du Bonnet PCH", "Type": "PCH", "Subtype": "Non-Proprietary", "Emerg_Dept": "NA", "Latitude": 50.25338889, "Longitude": -96.0607489 }, "geometry": { "type": "Point", "coordinates": [ -96.0607489, 50.25338889 ] } },
{ "type": "Feature", "properties": { "Number": "639", "Name": "Lions Personal Care Centre", "Type": "PCH", "Subtype": "Non-Proprietary", "Emerg_Dept": "NA", "Latitude": 49.8889446, "Longitude": -97.1595818 }, "geometry": { "type": "Point", "coordinates": [ -97.1595818, 49.8889446 ] } },
{ "type": "Feature", "properties": { "Number": "640", "Name": "Lions Prairie Manor", "Type": "PCH", "Subtype": "Non-Proprietary", "Emerg_Dept": "NA", "Latitude": 49.97182838, "Longitude": -98.27709411 }, "geometry": { "type": "Point", "coordinates": [ -98.27709411, 49.97182838 ] } },
{ "type": "Feature", "properties": { "Number": "612", "Name": "Lundar PCH", "Type": "PCH", "Subtype": "Non-Proprietary", "Emerg_Dept": "NA", "Latitude": 50.694704, "Longitude": -98.0381932 }, "geometry": { "type": "Point", "coordinates": [ -98.0381932, 50.694704 ] } },
{ "type": "Feature", "properties": { "Number": "643", "Name": "Luther Home", "Type": "PCH", "Subtype": "Non-Proprietary", "Emerg_Dept": "NA", "Latitude": 49.94497396, "Longitude": -97.1231099 }, "geometry": { "type": "Point", "coordinates": [ -97.1231099, 49.94497396 ] } },
{ "type": "Feature", "properties": { "Number": "691", "Name": "MacGregor PCH", "Type": "PCH", "Subtype": "Non-Proprietary", "Emerg_Dept": "NA", "Latitude": 49.96248417, "Longitude": -98.77562497 }, "geometry": { "type": "Point", "coordinates": [ -98.77562497, 49.96248417 ] } },
{ "type": "Feature", "properties": { "Number": "641", "Name": "McCreary/Alonsa PCH", "Type": "PCH", "Subtype": "Non-Proprietary", "Emerg_Dept": "NA", "Latitude": 50.77259264, "Longitude": -99.48632089 }, "geometry": { "type": "Point", "coordinates": [ -99.48632089, 50.77259264 ] } },
{ "type": "Feature", "properties": { "Number": "642", "Name": "Meadowood Manor", "Type": "PCH", "Subtype": "Non-Proprietary", "Emerg_Dept": "NA", "Latitude": 49.83466995, "Longitude": -97.09014203 }, "geometry": { "type": "Point", "coordinates": [ -97.09014203, 49.83466995 ] } },
{ "type": "Feature", "properties": { "Number": "652", "Name": "Melita PCH", "Type": "PCH", "Subtype": "Non-Proprietary", "Emerg_Dept": "NA", "Latitude": 49.27062987, "Longitude": -100.9969063 }, "geometry": { "type": "Point", "coordinates": [ -100.9969063, 49.27062987 ] } },
{ "type": "Feature", "properties": { "Number": "646", "Name": "Menno Home for the Aged", "Type": "PCH", "Subtype": "Non-Proprietary", "Emerg_Dept": "NA", "Latitude": 49.40560739, "Longitude": -96.86180603 }, "geometry": { "type": "Point", "coordinates": [ -96.86180603, 49.40560739 ] } },
{ "type": "Feature", "properties": { "Number": "649", "Name": "Middlechurch Home of Winnipeg", "Type": "PCH", "Subtype": "Non-Proprietary", "Emerg_Dept": "NA", "Latitude": 49.97928975, "Longitude": -97.06391666 }, "geometry": { "type": "Point", "coordinates": [ -97.06391666, 49.97928975 ] } },
{ "type": "Feature", "properties": { "Number": "648", "Name": "Minnedosa PCH", "Type": "PCH", "Subtype": "Non-Proprietary", "Emerg_Dept": "NA", "Latitude": 50.24564877, "Longitude": -99.84319757 }, "geometry": { "type": "Point", "coordinates": [ -99.84319757, 50.24564877 ] } },
{ "type": "Feature", "properties": { "Number": "509", "Name": "Misericordia Place", "Type": "PCH", "Subtype": "Non-Proprietary", "Emerg_Dept": "NA", "Latitude": 49.87984641, "Longitude": -97.15864145 }, "geometry": { "type": "Point", "coordinates": [ -97.15864145, 49.87984641 ] } },
{ "type": "Feature", "properties": { "Number": "650", "Name": "Morley House PCH", "Type": "PCH", "Subtype": "Non-Proprietary", "Emerg_Dept": "NA", "Latitude": 50.43844737, "Longitude": -100.5948264 }, "geometry": { "type": "Point", "coordinates": [ -100.5948264, 50.43844737 ] } },
{ "type": "Feature", "properties": { "Number": "570", "Name": "Nisichawayasihk PCH", "Type": "PCH", "Subtype": "Non-Proprietary", "Emerg_Dept": "NA", "Latitude": 55.78362437, "Longitude": -98.88605017 }, "geometry": { "type": "Point", "coordinates": [ -98.88605017, 55.78362437 ] } },
{ "type": "Feature", "properties": { "Number": "653", "Name": "Northern Lights Manor", "Type": "PCH", "Subtype": "Non-Proprietary", "Emerg_Dept": "NA", "Latitude": 54.77812097, "Longitude": -101.8470372 }, "geometry": { "type": "Point", "coordinates": [ -101.8470372, 54.77812097 ] } },
{ "type": "Feature", "properties": { "Number": "515", "Name": "Northern Spirit Manor", "Type": "PCH", "Subtype": "Non-Proprietary", "Emerg_Dept": "NA", "Latitude": 55.7342317, "Longitude": -97.85669462 }, "geometry": { "type": "Point", "coordinates": [ -97.85669462, 55.7342317 ] } },
{ "type": "Feature", "properties": { "Number": "657", "Name": "Park Manor Care", "Type": "PCH", "Subtype": "Non-Proprietary", "Emerg_Dept": "NA", "Latitude": 49.90022878, "Longitude": -96.98021837 }, "geometry": { "type": "Point", "coordinates": [ -96.98021837, 49.90022878 ] } },
{ "type": "Feature", "properties": { "Number": "636", "Name": "Pembina Place Mennonite PCH", "Type": "PCH", "Subtype": "Non-Proprietary", "Emerg_Dept": "NA", "Latitude": 49.87240546, "Longitude": -97.14419133 }, "geometry": { "type": "Point", "coordinates": [ -97.14419133, 49.87240546 ] } },
{ "type": "Feature", "properties": { "Number": "503", "Name": "Pembina-Manitou Health Centre", "Type": "PCH", "Subtype": "Non-Proprietary", "Emerg_Dept": "NA", "Latitude": 49.24171847, "Longitude": -98.5440987 }, "geometry": { "type": "Point", "coordinates": [ -98.5440987, 49.24171847 ] } },
{ "type": "Feature", "properties": { "Number": "658", "Name": "Pinaow Wachi PCH", "Type": "PCH", "Subtype": "Non-Proprietary", "Emerg_Dept": "NA", "Latitude": 53.99604595, "Longitude": -97.78799772000001 }, "geometry": { "type": "Point", "coordinates": [ -97.78799772, 53.99604595 ] } },
{ "type": "Feature", "properties": { "Number": "656", "Name": "Pioneer", "Type": "PCH", "Subtype": "Non-Proprietary", "Emerg_Dept": "NA", "Latitude": 50.90541274, "Longitude": -97.22626713 }, "geometry": { "type": "Point", "coordinates": [ -97.22626713, 50.90541274 ] } },
{ "type": "Feature", "properties": { "Number": "659", "Name": "Prairie View Lodge", "Type": "PCH", "Subtype": "Non-Proprietary", "Emerg_Dept": "NA", "Latitude": 49.20507379, "Longitude": -98.90087933 }, "geometry": { "type": "Point", "coordinates": [ -98.90087933, 49.20507379 ] } },
{ "type": "Feature", "properties": { "Number": "661", "Name": "Red River Valley Lodge", "Type": "PCH", "Subtype": "Non-Proprietary", "Emerg_Dept": "NA", "Latitude": 49.35340498, "Longitude": -97.36607879 }, "geometry": { "type": "Point", "coordinates": [ -97.36607879, 49.35340498 ] } },
{ "type": "Feature", "properties": { "Number": "645", "Name": "Repos Jolys", "Type": "PCH", "Subtype": "Non-Proprietary", "Emerg_Dept": "NA", "Latitude": 49.44481032, "Longitude": -96.9908447 }, "geometry": { "type": "Point", "coordinates": [ -96.9908447, 49.44481032 ] } },
{ "type": "Feature", "properties": { "Number": "662", "Name": "Rest Haven Nursing Home", "Type": "PCH", "Subtype": "Non-Proprietary", "Emerg_Dept": "NA", "Latitude": 49.52455908, "Longitude": -96.69593626 }, "geometry": { "type": "Point", "coordinates": [ -96.69593626, 49.52455908 ] } },
{ "type": "Feature", "properties": { "Number": "501", "Name": "Rideau Park PCH", "Type": "PCH", "Subtype": "Non-Proprietary", "Emerg_Dept": "NA", "Latitude": 49.84270281, "Longitude": -99.93182105 }, "geometry": { "type": "Point", "coordinates": [ -99.93182105, 49.84270281 ] } },
{ "type": "Feature", "properties": { "Number": "627", "Name": "River Park Gardens", "Type": "PCH", "Subtype": "Non-Proprietary", "Emerg_Dept": "NA", "Latitude": 49.82286568, "Longitude": -97.0824097 }, "geometry": { "type": "Point", "coordinates": [ -97.0824097, 49.82286568 ] } },
{ "type": "Feature", "properties": { "Number": "671", "Name": "Riverdale PCH", "Type": "PCH", "Subtype": "Non-Proprietary", "Emerg_Dept": "NA", "Latitude": 50.03527685, "Longitude": -100.2420324 }, "geometry": { "type": "Point", "coordinates": [ -100.2420324, 50.03527685 ] } },
{ "type": "Feature", "properties": { "Number": "6", "Name": "Riverview Health Centre", "Type": "PCH", "Subtype": "Non-Proprietary", "Emerg_Dept": "NA", "Latitude": 49.86890767, "Longitude": -97.11999257 }, "geometry": { "type": "Point", "coordinates": [ -97.11999257, 49.86890767 ] } },
{ "type": "Feature", "properties": { "Number": "654", "Name": "Rock Lake Health District PCH", "Type": "PCH", "Subtype": "Non-Proprietary", "Emerg_Dept": "NA", "Latitude": 49.2043428, "Longitude": -98.90101757 }, "geometry": { "type": "Point", "coordinates": [ -98.90101757, 49.2043428 ] } },
{ "type": "Feature", "properties": { "Number": "663", "Name": "Rosewood Lodge PCH", "Type": "PCH", "Subtype": "Non-Proprietary", "Emerg_Dept": "NA", "Latitude": 50.13667894, "Longitude": -97.33205723 }, "geometry": { "type": "Point", "coordinates": [ -97.33205723, 50.13667894 ] } },
{ "type": "Feature", "properties": { "Number": "692", "Name": "Rossburn PCH", "Type": "PCH", "Subtype": "Non-Proprietary", "Emerg_Dept": "NA", "Latitude": 50.66713337, "Longitude": -100.8043758 }, "geometry": { "type": "Point", "coordinates": [ -100.8043758, 50.66713337 ] } },
{ "type": "Feature", "properties": { "Number": "664", "Name": "Russell PCH", "Type": "PCH", "Subtype": "Non-Proprietary", "Emerg_Dept": "NA", "Latitude": 50.78516436, "Longitude": -101.2870435 }, "geometry": { "type": "Point", "coordinates": [ -101.2870435, 50.78516436 ] } },
{ "type": "Feature", "properties": { "Number": "674", "Name": "Saint Claude Health Centre", "Type": "PCH", "Subtype": "Non-Proprietary", "Emerg_Dept": "NA", "Latitude": 49.65378932, "Longitude": -98.34492159 }, "geometry": { "type": "Point", "coordinates": [ -98.34492159, 49.65378932 ] } },
{ "type": "Feature", "properties": { "Number": "672", "Name": "Salem Home Inc.", "Type": "PCH", "Subtype": "Non-Proprietary", "Emerg_Dept": "NA", "Latitude": 49.1791589, "Longitude": -97.95523315 }, "geometry": { "type": "Point", "coordinates": [ -97.95523315, 49.1791589 ] } },
{ "type": "Feature", "properties": { "Number": "678", "Name": "Sandy Lake PCH", "Type": "PCH", "Subtype": "Non-Proprietary", "Emerg_Dept": "NA", "Latitude": 50.52855633, "Longitude": -100.1791373 }, "geometry": { "type": "Point", "coordinates": [ -100.1791373, 50.52855633 ] } },
{ "type": "Feature", "properties": { "Number": "681", "Name": "Sherwood Nursing Home", "Type": "PCH", "Subtype": "Non-Proprietary", "Emerg_Dept": "NA", "Latitude": 49.85512007, "Longitude": -100.9301171 }, "geometry": { "type": "Point", "coordinates": [ -100.9301171, 49.85512007 ] } },
{ "type": "Feature", "properties": { "Number": "682", "Name": "Souris PCH", "Type": "PCH", "Subtype": "Non-Proprietary", "Emerg_Dept": "NA", "Latitude": 49.61459002, "Longitude": -100.2492698 }, "geometry": { "type": "Point", "coordinates": [ -100.2492698, 49.61459002 ] } },
{ "type": "Feature", "properties": { "Number": "512", "Name": "Southeast PCH", "Type": "PCH", "Subtype": "Non-Proprietary", "Emerg_Dept": "NA", "Latitude": 49.79741457, "Longitude": -97.1670888 }, "geometry": { "type": "Point", "coordinates": [ -97.1670888, 49.79741457 ] } },
{ "type": "Feature", "properties": { "Number": "669", "Name": "St Paul's Home", "Type": "PCH", "Subtype": "Non-Proprietary", "Emerg_Dept": "NA", "Latitude": 51.14254761, "Longitude": -100.0639703 }, "geometry": { "type": "Point", "coordinates": [ -100.0639703, 51.14254761 ] } },
{ "type": "Feature", "properties": { "Number": "670", "Name": "St. Paul's Residence", "Type": "PCH", "Subtype": "Non-Proprietary", "Emerg_Dept": "NA", "Latitude": 53.8270152, "Longitude": -101.2521415 }, "geometry": { "type": "Point", "coordinates": [ -101.2521415, 53.8270152 ] } },
{ "type": "Feature", "properties": { "Number": "608", "Name": "Sunnyside Manor", "Type": "PCH", "Subtype": "Non-Proprietary", "Emerg_Dept": "NA", "Latitude": 50.4262475, "Longitude": -101.0457559 }, "geometry": { "type": "Point", "coordinates": [ -101.0457559, 50.4262475 ] } },
{ "type": "Feature", "properties": { "Number": "597", "Name": "Sunnywood Manor PCH", "Type": "PCH", "Subtype": "Non-Proprietary", "Emerg_Dept": "NA", "Latitude": 50.56360347, "Longitude": -96.21568176 }, "geometry": { "type": "Point", "coordinates": [ -96.21568176, 50.56360347 ] } },
{ "type": "Feature", "properties": { "Number": "684", "Name": "Swan River Valley PCH", "Type": "PCH", "Subtype": "Non-Proprietary", "Emerg_Dept": "NA", "Latitude": 52.10046, "Longitude": -101.2625556 }, "geometry": { "type": "Point", "coordinates": [ -101.2625556, 52.10046 ] } },
{ "type": "Feature", "properties": { "Number": "683", "Name": "Swan Valley Lodge PCH", "Type": "PCH", "Subtype": "Non-Proprietary", "Emerg_Dept": "NA", "Latitude": 52.10577939, "Longitude": -101.2606862 }, "geometry": { "type": "Point", "coordinates": [ -101.2606862, 52.10577939 ] } },
{ "type": "Feature", "properties": { "Number": "686", "Name": "Tabor Home Inc.", "Type": "PCH", "Subtype": "Non-Proprietary", "Emerg_Dept": "NA", "Latitude": 49.19444486, "Longitude": -98.08979999 }, "geometry": { "type": "Point", "coordinates": [ -98.08979999, 49.19444486 ] } },
{ "type": "Feature", "properties": { "Number": "617", "Name": "The Convalescent Home of Winnipeg", "Type": "PCH", "Subtype": "Non-Proprietary", "Emerg_Dept": "NA", "Latitude": 49.87061447, "Longitude": -97.15008423 }, "geometry": { "type": "Point", "coordinates": [ -97.15008423, 49.87061447 ] } },
{ "type": "Feature", "properties": { "Number": "615", "Name": "The Saul and Claribel Simkin Centre", "Type": "PCH", "Subtype": "Non-Proprietary", "Emerg_Dept": "NA", "Latitude": 49.82308987, "Longitude": -97.1925684 }, "geometry": { "type": "Point", "coordinates": [ -97.1925684, 49.82308987 ] } },
{ "type": "Feature", "properties": { "Number": "689", "Name": "Third Crossing Manor", "Type": "PCH", "Subtype": "Non-Proprietary", "Emerg_Dept": "NA", "Latitude": 50.22643534, "Longitude": -98.96043487 }, "geometry": { "type": "Point", "coordinates": [ -98.96043487, 50.22643534 ] } },
{ "type": "Feature", "properties": { "Number": "687", "Name": "Tiger Hills Manor", "Type": "PCH", "Subtype": "Non-Proprietary", "Emerg_Dept": "NA", "Latitude": 49.63345782, "Longitude": -98.69820263 }, "geometry": { "type": "Point", "coordinates": [ -98.69820263, 49.63345782 ] } },
{ "type": "Feature", "properties": { "Number": "693", "Name": "Villa Youville Inc.", "Type": "PCH", "Subtype": "Non-Proprietary", "Emerg_Dept": "NA", "Latitude": 49.66654917, "Longitude": -96.64278213 }, "geometry": { "type": "Point", "coordinates": [ -96.64278213, 49.66654917 ] } },
{ "type": "Feature", "properties": { "Number": "679", "Name": "Vita & District PCH", "Type": "PCH", "Subtype": "Non-Proprietary", "Emerg_Dept": "NA", "Latitude": 49.13617729, "Longitude": -96.56478803 }, "geometry": { "type": "Point", "coordinates": [ -96.56478803, 49.13617729 ] } },
{ "type": "Feature", "properties": { "Number": "186", "Name": "Wawanesa Health Centre", "Type": "PCH", "Subtype": "Non-Proprietary", "Emerg_Dept": "NA", "Latitude": 49.59551682, "Longitude": -99.69366763 }, "geometry": { "type": "Point", "coordinates": [ -99.69366763, 49.59551682 ] } },
{ "type": "Feature", "properties": { "Number": "596", "Name": "West Park Manor PCH", "Type": "PCH", "Subtype": "Non-Proprietary", "Emerg_Dept": "NA", "Latitude": 49.85934736, "Longitude": -97.25296659 }, "geometry": { "type": "Point", "coordinates": [ -97.25296659, 49.85934736 ] } },
{ "type": "Feature", "properties": { "Number": "695", "Name": "West-man Nursing Home", "Type": "PCH", "Subtype": "Non-Proprietary", "Emerg_Dept": "NA", "Latitude": 49.85489246, "Longitude": -100.9248798 }, "geometry": { "type": "Point", "coordinates": [ -100.9248798, 49.85489246 ] } },
{ "type": "Feature", "properties": { "Number": "696", "Name": "Westview Lodge", "Type": "PCH", "Subtype": "Non-Proprietary", "Emerg_Dept": "NA", "Latitude": 49.23263385, "Longitude": -100.0609124 }, "geometry": { "type": "Point", "coordinates": [ -100.0609124, 49.23263385 ] } },
{ "type": "Feature", "properties": { "Number": "598", "Name": "Whitemouth District Health Centre PCH", "Type": "PCH", "Subtype": "Non-Proprietary", "Emerg_Dept": "NA", "Latitude": 49.95551317, "Longitude": -95.97258566 }, "geometry": { "type": "Point", "coordinates": [ -95.97258566, 49.95551317 ] } },
{ "type": "Feature", "properties": { "Number": "554", "Name": "Willowview PCH", "Type": "PCH", "Subtype": "Non-Proprietary", "Emerg_Dept": "NA", "Latitude": 49.56140854, "Longitude": -101.1000883 }, "geometry": { "type": "Point", "coordinates": [ -101.1000883, 49.56140854 ] } },
{ "type": "Feature", "properties": { "Number": "697", "Name": "Winnipegosis & District PCH Inc", "Type": "PCH", "Subtype": "Non-Proprietary", "Emerg_Dept": "NA", "Latitude": 51.64029161, "Longitude": -99.9322173 }, "geometry": { "type": "Point", "coordinates": [ -99.9322173, 51.64029161 ] } },
{ "type": "Feature", "properties": { "Number": "508", "Name": "Beacon Hill Lodge", "Type": "PCH", "Subtype": "Proprietary", "Emerg_Dept": "NA", "Latitude": 49.89117706, "Longitude": -97.13808499 }, "geometry": { "type": "Point", "coordinates": [ -97.13808499, 49.89117706 ] } },
{ "type": "Feature", "properties": { "Number": "559", "Name": "Charleswood Care Centre", "Type": "PCH", "Subtype": "Proprietary", "Emerg_Dept": "NA", "Latitude": 49.86034124, "Longitude": -97.2933589 }, "geometry": { "type": "Point", "coordinates": [ -97.2933589, 49.86034124 ] } },
{ "type": "Feature", "properties": { "Number": "571", "Name": "Extendicare Oakview Place", "Type": "PCH", "Subtype": "Proprietary", "Emerg_Dept": "NA", "Latitude": 49.88626766, "Longitude": -97.26510453 }, "geometry": { "type": "Point", "coordinates": [ -97.26510453, 49.88626766 ] } },
{ "type": "Feature", "properties": { "Number": "594", "Name": "Extendicare Tuxedo Villa", "Type": "PCH", "Subtype": "Proprietary", "Emerg_Dept": "NA", "Latitude": 49.8659261, "Longitude": -97.21331486 }, "geometry": { "type": "Point", "coordinates": [ -97.21331486, 49.8659261 ] } },
{ "type": "Feature", "properties": { "Number": "595", "Name": "Extendicare Vista Park Lodge", "Type": "PCH", "Subtype": "Proprietary", "Emerg_Dept": "NA", "Latitude": 49.81995961, "Longitude": -97.10677285 }, "geometry": { "type": "Point", "coordinates": [ -97.10677285, 49.81995961 ] } },
{ "type": "Feature", "properties": { "Number": "551", "Name": "Golden Door Geriatric Centre", "Type": "PCH", "Subtype": "Proprietary", "Emerg_Dept": "NA", "Latitude": 49.82857645, "Longitude": -97.15298513 }, "geometry": { "type": "Point", "coordinates": [ -97.15298513, 49.82857645 ] } },
{ "type": "Feature", "properties": { "Number": "555", "Name": "Heritage Lodge", "Type": "PCH", "Subtype": "Proprietary", "Emerg_Dept": "NA", "Latitude": 49.88325205, "Longitude": -97.30748156 }, "geometry": { "type": "Point", "coordinates": [ -97.30748156, 49.88325205 ] } },
{ "type": "Feature", "properties": { "Number": "557", "Name": "Hillcrest Place PCH", "Type": "PCH", "Subtype": "Proprietary", "Emerg_Dept": "NA", "Latitude": 49.83519951, "Longitude": -99.97422758 }, "geometry": { "type": "Point", "coordinates": [ -99.97422758, 49.83519951 ] } },
{ "type": "Feature", "properties": { "Number": "564", "Name": "Kildonan Personal Care Centre", "Type": "PCH", "Subtype": "Proprietary", "Emerg_Dept": "NA", "Latitude": 49.95727846, "Longitude": -97.07277739 }, "geometry": { "type": "Point", "coordinates": [ -97.07277739, 49.95727846 ] } },
{ "type": "Feature", "properties": { "Number": "568", "Name": "Maples PCH", "Type": "PCH", "Subtype": "Proprietary", "Emerg_Dept": "NA", "Latitude": 49.95993067, "Longitude": -97.1837301 }, "geometry": { "type": "Point", "coordinates": [ -97.1837301, 49.95993067 ] } },
{ "type": "Feature", "properties": { "Number": "521", "Name": "Poseidon Care Centre", "Type": "PCH", "Subtype": "Proprietary", "Emerg_Dept": "NA", "Latitude": 49.85302942, "Longitude": -97.17450173 }, "geometry": { "type": "Point", "coordinates": [ -97.17450173, 49.85302942 ] } },
{ "type": "Feature", "properties": { "Number": "583", "Name": "Red River Place", "Type": "PCH", "Subtype": "Proprietary", "Emerg_Dept": "NA", "Latitude": 50.12842774, "Longitude": -96.883522 }, "geometry": { "type": "Point", "coordinates": [ -96.883522, 50.12842774 ] } },
{ "type": "Feature", "properties": { "Number": "574", "Name": "River East PCH", "Type": "PCH", "Subtype": "Proprietary", "Emerg_Dept": "NA", "Latitude": 49.92125466, "Longitude": -97.05400353 }, "geometry": { "type": "Point", "coordinates": [ -97.05400353, 49.92125466 ] } },
{ "type": "Feature", "properties": { "Number": "581", "Name": "Saint Norbert PCH", "Type": "PCH", "Subtype": "Proprietary", "Emerg_Dept": "NA", "Latitude": 49.76609238, "Longitude": -97.14298553 }, "geometry": { "type": "Point", "coordinates": [ -97.14298553, 49.76609238 ] } },
{ "type": "Feature", "properties": { "Number": "593", "Name": "Tudor House", "Type": "PCH", "Subtype": "Proprietary", "Emerg_Dept": "NA", "Latitude": 50.15161867, "Longitude": -96.88870199 }, "geometry": { "type": "Point", "coordinates": [ -96.88870199, 50.15161867 ] } },
{ "type": "Feature", "properties": { "Number": "529", "Name": "Valleyview Care Centre", "Type": "PCH", "Subtype": "Proprietary", "Emerg_Dept": "NA", "Latitude": 49.84258763, "Longitude": -99.97938587 }, "geometry": { "type": "Point", "coordinates": [ -99.97938587, 49.84258763 ] } },
{ "type": "Feature", "properties": { "Number": "RAAM0006", "Name": "7th Street Access Centre RAAM Clinic", "Type": "RAAM", "Subtype": "NA", "Emerg_Dept": "NA", "Latitude": 49.84896113, "Longitude": -99.94770787 }, "geometry": { "type": "Point", "coordinates": [ -99.94770787, 49.84896113 ] } },
{ "type": "Feature", "properties": { "Number": "RAAM0007", "Name": "Aboriginal Health & Wellness Centre RAAM Clinic", "Type": "RAAM", "Subtype": "NA", "Emerg_Dept": "NA", "Latitude": 49.90462097, "Longitude": -97.13178273 }, "geometry": { "type": "Point", "coordinates": [ -97.13178273, 49.90462097 ] } },
{ "type": "Feature", "properties": { "Number": "RAAM0002", "Name": "CRC RAAM Clinic", "Type": "RAAM", "Subtype": "NA", "Emerg_Dept": "NA", "Latitude": 49.90555165, "Longitude": -97.16275793 }, "geometry": { "type": "Point", "coordinates": [ -97.16275793, 49.90555165 ] } },
{ "type": "Feature", "properties": { "Number": "RAAM0003", "Name": "Eaglewood Treatment Centre RAAM Clinic", "Type": "RAAM", "Subtype": "NA", "Emerg_Dept": "NA", "Latitude": 55.73218219, "Longitude": -97.8559817 }, "geometry": { "type": "Point", "coordinates": [ -97.8559817, 55.73218219 ] } },
{ "type": "Feature", "properties": { "Number": "RAAM0004", "Name": "Portage la Prairie RAAM Clinic", "Type": "RAAM", "Subtype": "NA", "Emerg_Dept": "NA", "Latitude": 49.96877457, "Longitude": -98.28382053 }, "geometry": { "type": "Point", "coordinates": [ -98.28382053, 49.96877457 ] } },
{ "type": "Feature", "properties": { "Number": "RAAM0001", "Name": "River Point Centre RAAM Clinic", "Type": "RAAM", "Subtype": "NA", "Emerg_Dept": "NA", "Latitude": 49.91315987, "Longitude": -97.13010273 }, "geometry": { "type": "Point", "coordinates": [ -97.13010273, 49.91315987 ] } },
{ "type": "Feature", "properties": { "Number": "RAAM0005", "Name": "Selkirk Community Health Office RAAM Clinic", "Type": "RAAM", "Subtype": "NA", "Emerg_Dept": "NA", "Latitude": 50.14505012, "Longitude": -96.87106163 }, "geometry": { "type": "Point", "coordinates": [ -96.87106163, 50.14505012 ] } }
]
}
